name	alternative_names	osm_type	osm_id	class	type	lon	lat	place_rank	importance	street	city	county	state	country	country_code	display_name	west	south	east	north	wikidata	wikipedia	housenumbers
Headwater Lake		way	168951560	natural	water	-121.6421931	41.0072634	16	0.35			Shasta County	California	United States of America	us	Headwater Lake, Shasta County, California, United States of America	-121.6425484	41.0070259	-121.6420279	41.0074661			
Beeler Reservoir		relation	1284188	natural	water	-121.1063207	41.5127927	16	0.35			Modoc County	California	United States of America	us	Beeler Reservoir, Modoc County, California, United States of America	-121.1163537	41.5048345	-121.0934351	41.5207357			
Toll House Reservoir		way	90275062	natural	water	-121.2687515	41.1077380	16	0.35			Lassen County	California	United States of America	us	Toll House Reservoir, Lassen County, California, United States of America	-121.2689328	41.1074674	-121.2685495	41.1079341			
Hardin Reservoir		way	90302322	natural	water	-121.2497835	41.1103355	16	0.35			Lassen County	California	United States of America	us	Hardin Reservoir, Lassen County, California, United States of America	-121.2509320	41.1098289	-121.2483980	41.1107978			
Green Place Reservoir		way	90277654	natural	water	-121.3930796	41.1782904	16	0.35				California	United States of America	us	Green Place Reservoir, California, United States of America	-121.3974653	41.1707750	-121.3813559	41.1858018			
Mud Lake		way	86591373	natural	water	-121.9838523	41.9857393	16	0.35			Siskiyou County	California	United States of America	us	Mud Lake, Siskiyou County, California, United States of America	-121.9851210	41.9843666	-121.9826014	41.9872084			
Lower Klamath Lake		way	86629321	natural	water	-121.7301952	41.9901843	16	0.35			Siskiyou County	California	United States of America	us	Lower Klamath Lake, Siskiyou County, California, United States of America	-121.7308116	41.9896315	-121.7295687	41.9907051			
Wild Horse Lake		way	86629382	natural	water	-121.8169565	41.8407792	16	0.35			Siskiyou County	California	United States of America	us	Wild Horse Lake, Siskiyou County, California, United States of America	-121.8180412	41.8393600	-121.8158519	41.8422025			
Lower Klamath Lake		way	86629529	natural	water	-121.7181554	41.9817873	16	0.35			Siskiyou County	California	United States of America	us	Lower Klamath Lake, Siskiyou County, California, United States of America	-121.7184431	41.9814019	-121.7179263	41.9821118			
Lower Klamath Lake		way	86631576	natural	water	-121.7159526	41.9802785	16	0.35			Siskiyou County	California	United States of America	us	Lower Klamath Lake, Siskiyou County, California, United States of America	-121.7161759	41.9801151	-121.7157938	41.9804608			
Sheepy Lake		way	86633714	natural	water	-121.7903064	41.9938312	16	0.35			Siskiyou County	California	United States of America	us	Sheepy Lake, Siskiyou County, California, United States of America	-121.7905026	41.9935049	-121.7900529	41.9942343			
Sheepy Lake		way	86634386	natural	water	-121.7966654	41.9890186	16	0.35			Siskiyou County	California	United States of America	us	Sheepy Lake, Siskiyou County, California, United States of America	-121.7974031	41.9885216	-121.7959236	41.9894430			
Mason Reservoir		way	86628281	natural	water	-121.2933613	41.8726523	16	0.35			Modoc County	California	United States of America	us	Mason Reservoir, Modoc County, California, United States of America	-121.2935864	41.8723764	-121.2931239	41.8729033			
Dry Lake		way	86628381	natural	water	-121.2876813	41.6836364	16	0.35			Modoc County	California	United States of America	us	Dry Lake, Modoc County, California, United States of America	-121.2877776	41.6835476	-121.2875553	41.6836798			
Dry Lake		way	86628682	natural	water	-121.2962000	41.6872238	16	0.35			Modoc County	California	United States of America	us	Dry Lake, Modoc County, California, United States of America	-121.2962621	41.6871180	-121.2961453	41.6872747			
Baker Reservoir		way	86628509	natural	water	-121.2449064	41.9209402	16	0.35			Modoc County	California	United States of America	us	Baker Reservoir, Modoc County, California, United States of America	-121.2454753	41.9205716	-121.2445956	41.9213666			
Courtright Reservoir		way	86628413	natural	water	-121.1535045	41.4736636	16	0.35			Modoc County	California	United States of America	us	Courtright Reservoir, Modoc County, California, United States of America	-121.1543398	41.4726954	-121.1528375	41.4746135			
Barry Tank		way	86629001	natural	water	-121.0487358	41.8632015	16	0.35			Modoc County	California	United States of America	us	Barry Tank, Modoc County, California, United States of America	-121.0489821	41.8630466	-121.0484766	41.8633649			
Joiner Reservoir		way	86317618	natural	water	-121.2236218	41.2939176	16	0.35			Modoc County	California	United States of America	us	Joiner Reservoir, Modoc County, California, United States of America	-121.2245420	41.2919958	-121.2228457	41.2958229			
Pit River		relation	1284941	natural	water	-121.1472615	41.1247523	16	0.35			Lassen County	California	United States of America	us	Pit River, Lassen County, California, United States of America	-121.1549158	41.1164916	-121.1436644	41.1327804			
Crum Reservoir		relation	1328394	natural	water	-121.3140379	41.1037846	16	0.35			Lassen County	California	United States of America	us	Crum Reservoir, Lassen County, California, United States of America	-121.3170813	41.1013329	-121.3111397	41.1061812			
Thompson Reservoir		way	86312035	natural	water	-121.1650484	41.0471555	16	0.35			Lassen County	California	United States of America	us	Thompson Reservoir, Lassen County, California, United States of America	-121.1658984	41.0466989	-121.1643964	41.0475961			
Hog Valley Reservoir		way	86315610	natural	water	-121.0127022	41.0386570	16	0.35			Lassen County	California	United States of America	us	Hog Valley Reservoir, Lassen County, California, United States of America	-121.0129380	41.0385063	-121.0124979	41.0388358			
Van Sickle Reservoir		way	90302079	natural	water	-121.2996536	41.1161117	16	0.35			Lassen County	California	United States of America	us	Van Sickle Reservoir, Lassen County, California, United States of America	-121.2998142	41.1160003	-121.2995093	41.1162366			
Clark Reservoir		way	90277664	natural	water	-121.3312700	41.1265810	16	0.35			Lassen County	California	United States of America	us	Clark Reservoir, Lassen County, California, United States of America	-121.3313838	41.1264256	-121.3311422	41.1267306			
Baldy Reservoir		way	90282818	natural	water	-121.3231328	41.1430213	16	0.35			Lassen County	California	United States of America	us	Baldy Reservoir, Lassen County, California, United States of America	-121.3232540	41.1428402	-121.3229840	41.1431427			
Lower Klamath Lake		way	86590757	natural	water	-121.7158524	41.9821600	16	0.35			Siskiyou County	California	United States of America	us	Lower Klamath Lake, Siskiyou County, California, United States of America	-121.7162640	41.9819240	-121.7155125	41.9823370			
Porcupine Lake		way	90278010	natural	water	-121.6121200	41.4062411	16	0.35			Siskiyou County	California	United States of America	us	Porcupine Lake, Siskiyou County, California, United States of America	-121.6125521	41.4060416	-121.6118869	41.4063773			
Wet Weather Lake		way	90301832	natural	water	-121.4983346	41.2986118	16	0.35			Siskiyou County	California	United States of America	us	Wet Weather Lake, Siskiyou County, California, United States of America	-121.4984269	41.2985354	-121.4982517	41.2986725			
Russell Lake		way	86590710	natural	water	-121.8630856	41.7424089	16	0.35			Siskiyou County	California	United States of America	us	Russell Lake, Siskiyou County, California, United States of America	-121.8646335	41.7407372	-121.8614803	41.7441348			
Lower Klamath Lake		way	86591021	natural	water	-121.7266956	41.9725043	16	0.35			Siskiyou County	California	United States of America	us	Lower Klamath Lake, Siskiyou County, California, United States of America	-121.7269765	41.9723451	-121.7264174	41.9726524			
Lower Klamath Lake		relation	1288119	natural	water	-121.7179154	41.9849023	16	0.35			Siskiyou County	California	United States of America	us	Lower Klamath Lake, Siskiyou County, California, United States of America	-121.7183127	41.9837223	-121.7163338	41.9860619			
Lower Klamath Lake		relation	1288117	natural	water	-121.7227514	41.9774616	16	0.35			Siskiyou County	California	United States of America	us	Lower Klamath Lake, Siskiyou County, California, United States of America	-121.7560223	41.9643888	-121.7213961	41.9905040			
Lake Miller		way	86629534	natural	water	-121.8552181	41.9915973	16	0.35			Siskiyou County	California	United States of America	us	Lake Miller, Siskiyou County, California, United States of America	-121.8678631	41.9828220	-121.8471273	42.0004643			
Sheepy Lake		way	86629174	natural	water	-121.7919674	41.9598617	16	0.35			Siskiyou County	California	United States of America	us	Sheepy Lake, Siskiyou County, California, United States of America	-121.7921116	41.9596480	-121.7917881	41.9599388			
Sheepy Lake		relation	1288184	natural	water	-121.8242277	41.9908463	16	0.35			Siskiyou County	California	United States of America	us	Sheepy Lake, Siskiyou County, California, United States of America	-121.8265725	41.9797756	-121.8100621	42.0020370			
Indian Tom Lake		way	86628877	natural	water	-121.8775420	41.9906987	16	0.35			Siskiyou County	California	United States of America	us	Indian Tom Lake, Siskiyou County, California, United States of America	-121.8883644	41.9832321	-121.8683584	41.9981273			
Sheepy Lake		way	86628302	natural	water	-121.7917626	41.9930624	16	0.35			Siskiyou County	California	United States of America	us	Sheepy Lake, Siskiyou County, California, United States of America	-121.7919240	41.9929033	-121.7915859	41.9931396			
White Deer Lake		way	90275458	natural	water	-121.7414933	41.3388172	16	0.35			Siskiyou County	California	United States of America	us	White Deer Lake, Siskiyou County, California, United States of America	-121.7440190	41.3350260	-121.7398750	41.3426330			
Lower Klamath Lake		relation	1288363	natural	water	-121.7141329	41.9896930	16	0.35			Siskiyou County	California	United States of America	us	Lower Klamath Lake, Siskiyou County, California, United States of America	-121.7178429	41.9844769	-121.7120997	41.9948931			
Lower Klamath Lake		way	86583344	natural	water	-121.7278607	41.9892947	16	0.35			Siskiyou County	California	United States of America	us	Lower Klamath Lake, Siskiyou County, California, United States of America	-121.7292372	41.9881879	-121.7263657	41.9903563			
Lower Klamath Lake		relation	1288362	natural	water	-121.7197295	41.9822327	16	0.35			Siskiyou County	California	United States of America	us	Lower Klamath Lake, Siskiyou County, California, United States of America	-121.7775084	41.9641026	-121.7088721	42.0003922			
Sheepy Lake		relation	1288172	natural	water	-121.8056083	41.9795713	16	0.35			Siskiyou County	California	United States of America	us	Sheepy Lake, Siskiyou County, California, United States of America	-121.8258419	41.9570942	-121.7570535	42.0020370			
Deyarmie Lake		relation	1288815	natural	water	-121.8134561	41.7542363	16	0.35			Siskiyou County	California	United States of America	us	Deyarmie Lake, Siskiyou County, California, United States of America	-121.8184945	41.7508064	-121.8084236	41.7576393			
Rainbow Lake		relation	1328698	natural	water	-121.9381328	41.4558494	16	0.35			Siskiyou County	California	United States of America	us	Rainbow Lake, Siskiyou County, California, United States of America	-121.9389714	41.4555913	-121.9371906	41.4561513			
Sheepy Lake		way	86508025	natural	water	-121.8080083	41.9774748	16	0.35			Siskiyou County	California	United States of America	us	Sheepy Lake, Siskiyou County, California, United States of America	-121.8082132	41.9772088	-121.8078090	41.9777024			
Lower Klamath Lake		way	86521615	natural	water	-121.7247013	41.9868546	16	0.35			Siskiyou County	California	United States of America	us	Lower Klamath Lake, Siskiyou County, California, United States of America	-121.7257248	41.9864729	-121.7240257	41.9872505			
Lower Klamath Lake		way	86522204	natural	water	-121.7227707	41.9828807	16	0.35			Siskiyou County	California	United States of America	us	Lower Klamath Lake, Siskiyou County, California, United States of America	-121.7231286	41.9823179	-121.7224661	41.9833666			
Hemlock Lake		way	86524404	natural	water	-121.9270474	41.4788468	16	0.35			Siskiyou County	California	United States of America	us	Hemlock Lake, Siskiyou County, California, United States of America	-121.9276234	41.4783390	-121.9264632	41.4793788			
Frog Lake		way	86582934	natural	water	-121.9163275	41.4960835	16	0.35			Siskiyou County	California	United States of America	us	Frog Lake, Siskiyou County, California, United States of America	-121.9178724	41.4957148	-121.9159380	41.4965043			
Lower Klamath Lake		way	86583477	natural	water	-121.7340452	41.9897279	16	0.35			Siskiyou County	California	United States of America	us	Lower Klamath Lake, Siskiyou County, California, United States of America	-121.7343705	41.9895198	-121.7337441	41.9899798			
Deyarmie Lake		way	86580895	natural	water	-121.8142871	41.7549926	16	0.35			Siskiyou County	California	United States of America	us	Deyarmie Lake, Siskiyou County, California, United States of America	-121.8145783	41.7548303	-121.8140062	41.7551745			
Antelope Creek Lakes		way	86580934	natural	water	-121.9820259	41.4708490	16	0.35			Siskiyou County	California	United States of America	us	Antelope Creek Lakes, Siskiyou County, California, United States of America	-121.9825207	41.4700553	-121.9812905	41.4716228			
Red Rock Lakes		way	86581115	natural	water	-121.8325176	41.8330441	16	0.35			Siskiyou County	California	United States of America	us	Red Rock Lakes, Siskiyou County, California, United States of America	-121.8352593	41.8299022	-121.8301816	41.8359662			
Sheepy Lake		way	86581186	natural	water	-121.7876008	41.9701399	16	0.35			Siskiyou County	California	United States of America	us	Sheepy Lake, Siskiyou County, California, United States of America	-121.7888109	41.9691216	-121.7865875	41.9711940			
Sheepy Lake		way	86581259	natural	water	-121.7913130	41.9720395	16	0.35			Siskiyou County	California	United States of America	us	Sheepy Lake, Siskiyou County, California, United States of America	-121.7927481	41.9715768	-121.7908894	41.9725056			
Lower Klamath Lake		way	86581523	natural	water	-121.7133920	41.9974484	16	0.35			Siskiyou County	California	United States of America	us	Lower Klamath Lake, Siskiyou County, California, United States of America	-121.7155935	41.9951063	-121.7119217	41.9997314			
Lower Klamath Lake		way	86582958	natural	water	-121.7146963	41.9760813	16	0.35			Siskiyou County	California	United States of America	us	Lower Klamath Lake, Siskiyou County, California, United States of America	-121.7147752	41.9758837	-121.7145132	41.9763005			
Sheepy Lake		way	86590623	natural	water	-121.7927854	41.9597513	16	0.35			Siskiyou County	California	United States of America	us	Sheepy Lake, Siskiyou County, California, United States of America	-121.7930311	41.9595119	-121.7925232	41.9599896			
Lower Klamath Lake		way	86581268	natural	water	-121.7294102	41.9953670	16	0.35			Siskiyou County	California	United States of America	us	Lower Klamath Lake, Siskiyou County, California, United States of America	-121.7328802	41.9947349	-121.7232371	41.9959907			
Red Rock Lakes		way	86585976	natural	water	-121.8235327	41.8236162	16	0.35			Siskiyou County	California	United States of America	us	Red Rock Lakes, Siskiyou County, California, United States of America	-121.8278016	41.8201049	-121.8198353	41.8272479			
Sheepy Lake		way	86586236	natural	water	-121.7872445	41.9633516	16	0.35			Siskiyou County	California	United States of America	us	Sheepy Lake, Siskiyou County, California, United States of America	-121.7876674	41.9629490	-121.7869675	41.9637009			
Sheepy Lake		way	86586167	natural	water	-121.7914533	41.9844052	16	0.35			Siskiyou County	California	United States of America	us	Sheepy Lake, Siskiyou County, California, United States of America	-121.7925171	41.9831125	-121.7909154	41.9856917			
Lower Klamath Lake		way	86586493	natural	water	-121.7143665	41.9969616	16	0.35			Siskiyou County	California	United States of America	us	Lower Klamath Lake, Siskiyou County, California, United States of America	-121.7146894	41.9957271	-121.7132683	41.9978788			
Sheepy Lake		way	86586634	natural	water	-121.7721209	41.9846085	16	0.35			Siskiyou County	California	United States of America	us	Sheepy Lake, Siskiyou County, California, United States of America	-121.7722828	41.9843116	-121.7719304	41.9847507			
Beal Lake		way	86589973	natural	water	-121.8740132	41.9523931	16	0.35			Siskiyou County	California	United States of America	us	Beal Lake, Siskiyou County, California, United States of America	-121.8747491	41.9517744	-121.8732922	41.9530090			
Duck Lake		way	86590461	natural	water	-121.9924906	41.5176145	16	0.35			Siskiyou County	California	United States of America	us	Duck Lake, Siskiyou County, California, United States of America	-121.9934113	41.5171646	-121.9915490	41.5180996			
Lower Klamath Lake		way	86591947	natural	water	-121.7160275	41.9780669	16	0.35			Siskiyou County	California	United States of America	us	Lower Klamath Lake, Siskiyou County, California, United States of America	-121.7180560	41.9758448	-121.7146302	41.9802995			
Orr Lake		way	86593351	natural	water	-121.9922056	41.6625902	16	0.35			Siskiyou County	California	United States of America	us	Orr Lake, Siskiyou County, California, United States of America	-121.9954487	41.6586848	-121.9889341	41.6665046			
Glaser Lakes		way	86628283	natural	water	-121.7535871	41.9275450	16	0.35			Siskiyou County	California	United States of America	us	Glaser Lakes, Siskiyou County, California, United States of America	-121.7584183	41.9259578	-121.7496062	41.9291201			
Lower Klamath Lake		way	86628377	natural	water	-121.7261304	41.9728405	16	0.35			Siskiyou County	California	United States of America	us	Lower Klamath Lake, Siskiyou County, California, United States of America	-121.7262693	41.9727144	-121.7259672	41.9729553			
Lower Klamath Lake		way	86628673	natural	water	-121.7169068	41.9759783	16	0.35			Siskiyou County	California	United States of America	us	Lower Klamath Lake, Siskiyou County, California, United States of America	-121.7178563	41.9756133	-121.7160702	41.9763768			
Souza Lake		way	86634432	natural	water	-121.7976800	41.8536639	16	0.35			Siskiyou County	California	United States of America	us	Souza Lake, Siskiyou County, California, United States of America	-121.8010849	41.8516140	-121.7946477	41.8559457			
Toad Lake		way	90275869	natural	water	-121.7517960	41.4028321	16	0.35			Siskiyou County	California	United States of America	us	Toad Lake, Siskiyou County, California, United States of America	-121.7520522	41.4024342	-121.7514317	41.4031915			
Tamarack Lake		way	90276232	natural	water	-121.7929169	41.5451372	16	0.35			Siskiyou County	California	United States of America	us	Tamarack Lake, Siskiyou County, California, United States of America	-121.7932745	41.5449122	-121.7924266	41.5454172			
Bear Lake		way	90274767	natural	water	-121.7261178	41.2714933	16	0.35			Siskiyou County	California	United States of America	us	Bear Lake, Siskiyou County, California, United States of America	-121.7267222	41.2700199	-121.7254711	41.2728194			
Bonita Lake		relation	1287029	natural	water	-121.6684775	41.7540978	16	0.35			Siskiyou County	California	United States of America	us	Bonita Lake, Siskiyou County, California, United States of America	-121.6718126	41.7509414	-121.6648149	41.7569693			
Medicine Lake		way	27258503	natural	water	-121.5988803	41.5826456	16	0.35			Siskiyou County	California	United States of America	us	Medicine Lake, Siskiyou County, California, United States of America	-121.6128732	41.5763995	-121.5860451	41.5888338			
Tule Lake		way	14874158	natural	water	-121.5295767	41.9049643	16	0.35			Siskiyou County	California	United States of America	us	Tule Lake, Siskiyou County, California, United States of America	-121.5663001	41.8527397	-121.4928216	41.9582815			
Panhandle Lake		relation	1288828	natural	water	-121.6587722	41.7804071	16	0.35			Siskiyou County	California	United States of America	us	Panhandle Lake, Siskiyou County, California, United States of America	-121.6601312	41.7795243	-121.6572824	41.7813080			
Sheep Camp Lake		way	86506975	natural	water	-121.6572580	41.8106356	16	0.35			Siskiyou County	California	United States of America	us	Sheep Camp Lake, Siskiyou County, California, United States of America	-121.6584656	41.8082523	-121.6552869	41.8130349			
Panhandle Lake		way	86581207	natural	water	-121.6597786	41.7802416	16	0.35			Siskiyou County	California	United States of America	us	Panhandle Lake, Siskiyou County, California, United States of America	-121.6598968	41.7801700	-121.6596697	41.7803730			
Panhandle Lake		way	86632182	natural	water	-121.6595310	41.7807756	16	0.35			Siskiyou County	California	United States of America	us	Panhandle Lake, Siskiyou County, California, United States of America	-121.6597221	41.7806219	-121.6593409	41.7809294			
Little Medicine Lake		way	90275369	natural	water	-121.6124199	41.5882068	16	0.35			Siskiyou County	California	United States of America	us	Little Medicine Lake, Siskiyou County, California, United States of America	-121.6133519	41.5876088	-121.6114509	41.5887344			
Bullseye Lake		way	90275607	natural	water	-121.5751144	41.5551699	16	0.35			Siskiyou County	California	United States of America	us	Bullseye Lake, Siskiyou County, California, United States of America	-121.5760450	41.5543490	-121.5741887	41.5560894			
Blanche Lake		way	90277671	natural	water	-121.5707777	41.5566086	16	0.35			Siskiyou County	California	United States of America	us	Blanche Lake, Siskiyou County, California, United States of America	-121.5714772	41.5561226	-121.5701251	41.5571109			
Brownell Meadow		way	90283014	natural	water	-121.6056896	41.5769718	16	0.35			Siskiyou County	California	United States of America	us	Brownell Meadow, Siskiyou County, California, United States of America	-121.6061277	41.5767632	-121.6052062	41.5771912			
Barnum Flat Reservoir		relation	1328405	natural	water	-121.4718814	41.3226600	16	0.35			Siskiyou County	California	United States of America	us	Barnum Flat Reservoir, Siskiyou County, California, United States of America	-121.4851275	41.3133369	-121.4568965	41.3320345			
Wart on Tree Tank		way	86523588	natural	water	-121.0238466	41.5977749	16	0.35			Modoc County	California	United States of America	us	Wart on Tree Tank, Modoc County, California, United States of America	-121.0239981	41.5974250	-121.0236643	41.5980778			
Spaulding Reservoir		way	86525128	natural	water	-121.1305813	41.5176383	16	0.35			Modoc County	California	United States of America	us	Spaulding Reservoir, Modoc County, California, United States of America	-121.1306397	41.5175917	-121.1305228	41.5176905			
Spaulding Reservoir		way	86526352	natural	water	-121.1304809	41.5186532	16	0.35			Modoc County	California	United States of America	us	Spaulding Reservoir, Modoc County, California, United States of America	-121.1305537	41.5186119	-121.1304076	41.5186944			
Dry Lake		way	86593448	natural	water	-121.2938814	41.6830959	16	0.35			Modoc County	California	United States of America	us	Dry Lake, Modoc County, California, United States of America	-121.2939781	41.6829851	-121.2938087	41.6831634			
Mud Lake		relation	1288341	natural	water	-121.1727586	41.4971909	16	0.35			Modoc County	California	United States of America	us	Mud Lake, Modoc County, California, United States of America	-121.1863304	41.4858302	-121.1595328	41.5085521			
Dry Lake		relation	1288820	natural	water	-121.2776990	41.6825461	16	0.35			Modoc County	California	United States of America	us	Dry Lake, Modoc County, California, United States of America	-121.2982143	41.6744059	-121.2695497	41.6906900			
Dustys Waterhole		way	86319303	natural	water	-121.3289135	41.4678327	16	0.35			Modoc County	California	United States of America	us	Dustys Waterhole, Modoc County, California, United States of America	-121.3290758	41.4676988	-121.3287681	41.4679173			
Spaulding Reservoir		way	86631454	natural	water	-121.1322058	41.5184910	16	0.35			Modoc County	California	United States of America	us	Spaulding Reservoir, Modoc County, California, United States of America	-121.1322757	41.5184325	-121.1321227	41.5185428			
Johnson Reservoir		way	86592908	natural	water	-121.2144584	41.9621571	16	0.35			Modoc County	California	United States of America	us	Johnson Reservoir, Modoc County, California, United States of America	-121.2149375	41.9615273	-121.2139822	41.9627633			
Lone Pine Lake		way	86528186	natural	water	-121.1203460	41.7292571	16	0.35			Modoc County	California	United States of America	us	Lone Pine Lake, Modoc County, California, United States of America	-121.1266935	41.7265174	-121.1108734	41.7320149			
Henski Reservoir		relation	1288340	natural	water	-121.1366537	41.5270033	16	0.35			Modoc County	California	United States of America	us	Henski Reservoir, Modoc County, California, United States of America	-121.1397120	41.5243608	-121.1320938	41.5296358			
Dry Lake		way	86520128	natural	water	-121.2969763	41.6900072	16	0.35			Modoc County	California	United States of America	us	Dry Lake, Modoc County, California, United States of America	-121.2970510	41.6899329	-121.2969053	41.6900868			
Spaulding 3 Reservoir		relation	1288116	natural	water	-121.1269224	41.5105778	16	0.35			Modoc County	California	United States of America	us	Spaulding 3 Reservoir, Modoc County, California, United States of America	-121.1304071	41.5081551	-121.1241117	41.5130289			
Spaulding Reservoir		relation	1288162	natural	water	-121.1307462	41.5177608	16	0.35			Modoc County	California	United States of America	us	Spaulding Reservoir, Modoc County, California, United States of America	-121.1364839	41.5125786	-121.1248105	41.5229505			
Hackamore Reservoir		way	86592137	natural	water	-121.1283185	41.5566402	16	0.35			Modoc County	California	United States of America	us	Hackamore Reservoir, Modoc County, California, United States of America	-121.1400353	41.5536290	-121.1251526	41.5596503			
Cummins Lake		relation	1288336	natural	water	-121.2455327	41.7057717	16	0.35			Modoc County	California	United States of America	us	Cummins Lake, Modoc County, California, United States of America	-121.2469827	41.7040749	-121.2438927	41.7074659			
Whitney Reservoir		way	86591501	natural	water	-121.1388350	41.5798588	16	0.35			Modoc County	California	United States of America	us	Whitney Reservoir, Modoc County, California, United States of America	-121.1423358	41.5721203	-121.1246660	41.5876467			
Cannon Tank		way	86631960	natural	water	-121.1567374	41.5410509	16	0.35			Modoc County	California	United States of America	us	Cannon Tank, Modoc County, California, United States of America	-121.1571043	41.5406494	-121.1565210	41.5414944			
Lava Lake		way	86313224	natural	water	-121.2912238	41.4569801	16	0.35			Modoc County	California	United States of America	us	Lava Lake, Modoc County, California, United States of America	-121.2913955	41.4568676	-121.2910447	41.4571420			
Dry Lake		way	86634458	natural	water	-121.2976857	41.6894546	16	0.35			Modoc County	California	United States of America	us	Dry Lake, Modoc County, California, United States of America	-121.2977463	41.6893885	-121.2975782	41.6894816			
Pinnacle Lake		way	86586111	natural	water	-121.0493543	41.7655112	16	0.35			Modoc County	California	United States of America	us	Pinnacle Lake, Modoc County, California, United States of America	-121.0550869	41.7593379	-121.0435037	41.7717083			
Stovepipe Flat		way	86319326	natural	water	-121.0085609	41.5780993	16	0.35			Modoc County	California	United States of America	us	Stovepipe Flat, Modoc County, California, United States of America	-121.0090927	41.5776261	-121.0082759	41.5785798			
Stovepipe Flat		way	86316380	natural	water	-121.0043193	41.5799314	16	0.35			Modoc County	California	United States of America	us	Stovepipe Flat, Modoc County, California, United States of America	-121.0094090	41.5766269	-121.0009942	41.5831807			
Double Head Lake		relation	1288764	natural	water	-121.1386695	41.7512570	16	0.35			Modoc County	California	United States of America	us	Double Head Lake, Modoc County, California, United States of America	-121.1426349	41.7473791	-121.1332568	41.7550556			
Hollenbeck Flat		way	86302851	natural	water	-121.2879014	41.4799112	16	0.35			Modoc County	California	United States of America	us	Hollenbeck Flat, Modoc County, California, United States of America	-121.2881903	41.4796258	-121.2875842	41.4801558			
Hog Lake		way	86313303	natural	water	-121.0261023	41.5500432	16	0.35			Modoc County	California	United States of America	us	Hog Lake, Modoc County, California, United States of America	-121.0311196	41.5448987	-121.0247672	41.5552046			
Dalton Reservoir		way	86507693	natural	water	-121.0318138	41.7303407	16	0.35			Modoc County	California	United States of America	us	Dalton Reservoir, Modoc County, California, United States of America	-121.0327431	41.7272148	-121.0292256	41.7333396			
Red Lake		way	86507511	natural	water	-121.0750247	41.7950871	16	0.35			Modoc County	California	United States of America	us	Red Lake, Modoc County, California, United States of America	-121.0797342	41.7912396	-121.0697284	41.7989559			
Dry Lake		way	86520049	natural	water	-121.2973911	41.6894877	16	0.35			Modoc County	California	United States of America	us	Dry Lake, Modoc County, California, United States of America	-121.2974897	41.6894335	-121.2972846	41.6895158			
Dry Lake		way	86521903	natural	water	-121.2946003	41.6865463	16	0.35			Modoc County	California	United States of America	us	Dry Lake, Modoc County, California, United States of America	-121.2946802	41.6864855	-121.2945112	41.6866005			
Rimrock Lake		way	86521725	natural	water	-121.1999833	41.7075463	16	0.35			Modoc County	California	United States of America	us	Rimrock Lake, Modoc County, California, United States of America	-121.2010849	41.7052078	-121.1985860	41.7099003			
Dry Lake		way	86522769	natural	water	-121.2968259	41.6896626	16	0.35			Modoc County	California	United States of America	us	Dry Lake, Modoc County, California, United States of America	-121.2969565	41.6896251	-121.2967294	41.6897396			
Cummins Lake		way	86522654	natural	water	-121.2456986	41.7069231	16	0.35			Modoc County	California	United States of America	us	Cummins Lake, Modoc County, California, United States of America	-121.2458435	41.7066102	-121.2455566	41.7071860			
Dry Lake		way	86581597	natural	water	-121.2904828	41.6844269	16	0.35			Modoc County	California	United States of America	us	Dry Lake, Modoc County, California, United States of America	-121.2906093	41.6843891	-121.2903538	41.6845041			
Spaulding Reservoir		way	86586249	natural	water	-121.1318200	41.5213386	16	0.35			Modoc County	California	United States of America	us	Spaulding Reservoir, Modoc County, California, United States of America	-121.1318880	41.5212816	-121.1317491	41.5213966			
Spaulding Reservoir		way	86586662	natural	water	-121.1304762	41.5200641	16	0.35			Modoc County	California	United States of America	us	Spaulding Reservoir, Modoc County, California, United States of America	-121.1305351	41.5200173	-121.1304143	41.5200991			
Spaulding Reservoir		way	86590094	natural	water	-121.1344911	41.5193389	16	0.35			Modoc County	California	United States of America	us	Spaulding Reservoir, Modoc County, California, United States of America	-121.1345399	41.5192733	-121.1344290	41.5194376			
Henski Reservoir		way	86590180	natural	water	-121.1375132	41.5285331	16	0.35			Modoc County	California	United States of America	us	Henski Reservoir, Modoc County, California, United States of America	-121.1376136	41.5284565	-121.1374247	41.5286167			
Spaulding Reservoir		way	86590192	natural	water	-121.1321217	41.5196973	16	0.35			Modoc County	California	United States of America	us	Spaulding Reservoir, Modoc County, California, United States of America	-121.1321941	41.5196344	-121.1320482	41.5197549			
Dry Lake		way	86591185	natural	water	-121.2934457	41.6838289	16	0.35			Modoc County	California	United States of America	us	Dry Lake, Modoc County, California, United States of America	-121.2935088	41.6837452	-121.2933762	41.6839045			
Dry Lake		way	86592081	natural	water	-121.2877176	41.6825906	16	0.35			Modoc County	California	United States of America	us	Dry Lake, Modoc County, California, United States of America	-121.2878577	41.6825163	-121.2876243	41.6826816			
Harvey Lake		way	86632820	natural	water	-121.2529552	41.7700066	16	0.35			Modoc County	California	United States of America	us	Harvey Lake, Modoc County, California, United States of America	-121.2531538	41.7699265	-121.2527439	41.7701161			
Spaulding Reservoir		way	86632962	natural	water	-121.1327390	41.5214223	16	0.35			Modoc County	California	United States of America	us	Spaulding Reservoir, Modoc County, California, United States of America	-121.1328070	41.5213572	-121.1326683	41.5214507			
Sorholus Tank		way	86633215	natural	water	-121.0842169	41.6149795	16	0.35			Modoc County	California	United States of America	us	Sorholus Tank, Modoc County, California, United States of America	-121.0844774	41.6148229	-121.0839579	41.6151690			
Spaulding Reservoir		way	86633599	natural	water	-121.1318258	41.5168572	16	0.35			Modoc County	California	United States of America	us	Spaulding Reservoir, Modoc County, California, United States of America	-121.1319067	41.5167748	-121.1317457	41.5169227			
Dry Lake		way	86634351	natural	water	-121.2916973	41.6821098	16	0.35			Modoc County	California	United States of America	us	Dry Lake, Modoc County, California, United States of America	-121.2917956	41.6820278	-121.2915979	41.6821653			
Lost Reservoir		way	86316350	natural	water	-121.2931642	41.2856884	16	0.35			Modoc County	California	United States of America	us	Lost Reservoir, Modoc County, California, United States of America	-121.2938232	41.2844139	-121.2922499	41.2870149			
Fox Flat		way	86316804	natural	water	-121.0563445	41.2787393	16	0.35			Modoc County	California	United States of America	us	Fox Flat, Modoc County, California, United States of America	-121.0567393	41.2785604	-121.0559540	41.2789252			
Lower Roberts Reservoir		relation	1284437	natural	water	-121.1480035	41.2381779	16	0.35			Modoc County	California	United States of America	us	Lower Roberts Reservoir, Modoc County, California, United States of America	-121.1630547	41.2284273	-121.1355895	41.2477894			
Mosquito Lake		way	90303888	natural	water	-121.4354529	41.3249863	16	0.35			Modoc County	California	United States of America	us	Mosquito Lake, Modoc County, California, United States of America	-121.4398454	41.3178805	-121.4319164	41.3321749			
Webb Flat Reservoir		way	86315917	natural	water	-121.1924474	41.4136955	16	0.35			Modoc County	California	United States of America	us	Webb Flat Reservoir, Modoc County, California, United States of America	-121.1933381	41.4120909	-121.1917359	41.4152850			
Hines Reservoir		relation	1284540	natural	water	-121.1503960	41.2697716	16	0.35			Modoc County	California	United States of America	us	Hines Reservoir, Modoc County, California, United States of America	-121.1558517	41.2649025	-121.1488425	41.2746336			
Little Egg Lake		way	86302947	natural	water	-121.2481037	41.3112255	16	0.35			Modoc County	California	United States of America	us	Little Egg Lake, Modoc County, California, United States of America	-121.2528462	41.3077948	-121.2454784	41.3146957			
Twin Lakes		way	86310868	natural	water	-121.0961132	41.3377897	16	0.35			Modoc County	California	United States of America	us	Twin Lakes, Modoc County, California, United States of America	-121.0962594	41.3374685	-121.0956870	41.3380775			
Wet Weather Pond		way	86316259	natural	water	-121.3300566	41.3429881	16	0.35			Modoc County	California	United States of America	us	Wet Weather Pond, Modoc County, California, United States of America	-121.3302823	41.3428169	-121.3298225	41.3431624			
Deep Waterhole		way	86311992	natural	water	-121.3790404	41.3889912	16	0.35			Modoc County	California	United States of America	us	Deep Waterhole, Modoc County, California, United States of America	-121.3792394	41.3888425	-121.3788352	41.3891286			
Curtis Waterhole		way	86312017	natural	water	-121.3266568	41.3606787	16	0.35			Modoc County	California	United States of America	us	Curtis Waterhole, Modoc County, California, United States of America	-121.3269371	41.3602073	-121.3263252	41.3611771			
Ben Eberli Waterhole		way	86314340	natural	water	-121.2748357	41.3609835	16	0.35			Modoc County	California	United States of America	us	Ben Eberli Waterhole, Modoc County, California, United States of America	-121.2750661	41.3608222	-121.2746011	41.3611450			
Ben Eberli Waterhole		way	86314736	natural	water	-121.2749480	41.3596898	16	0.35			Modoc County	California	United States of America	us	Ben Eberli Waterhole, Modoc County, California, United States of America	-121.2770939	41.3583878	-121.2724689	41.3611178			
Frog Waterhole		way	86319368	natural	water	-121.3913421	41.3807552	16	0.35			Modoc County	California	United States of America	us	Frog Waterhole, Modoc County, California, United States of America	-121.3914391	41.3805493	-121.3911569	41.3809842			
Taylor Reservoir		way	86338869	natural	water	-121.1949654	41.2302365	16	0.35			Modoc County	California	United States of America	us	Taylor Reservoir, Modoc County, California, United States of America	-121.1972153	41.2252580	-121.1905047	41.2354692			
Gassaway Reservoir		way	90302593	natural	water	-121.4418667	41.2323759	16	0.35			Modoc County	California	United States of America	us	Gassaway Reservoir, Modoc County, California, United States of America	-121.4431426	41.2310695	-121.4395424	41.2336528			
Horr Pond		relation	1328697	natural	water	-121.4007107	41.1167079	16	0.35			Shasta County	California	United States of America	us	Horr Pond, Shasta County, California, United States of America	-121.4567637	41.1001220	-121.3904385	41.1335466			
Lake Britton		relation	1328686	natural	water	-121.6064693	41.0136765	16	0.35			Shasta County	California	United States of America	us	Lake Britton, Shasta County, California, United States of America	-121.6768341	40.9896769	-121.5764532	41.0376993			
Fall River Lake		way	90303032	natural	water	-121.4521633	41.0178525	16	0.35			Shasta County	California	United States of America	us	Fall River Lake, Shasta County, California, United States of America	-121.4645960	41.0076567	-121.4430422	41.0279958			
Warner Grade Reservoir		way	90305158	natural	water	-121.5591984	41.0157355	16	0.35			Shasta County	California	United States of America	us	Warner Grade Reservoir, Shasta County, California, United States of America	-121.5597872	41.0152132	-121.5587963	41.0161334			
Indian Reservoir		way	90304558	natural	water	-121.3470444	41.1437993	16	0.35			Shasta County	California	United States of America	us	Indian Reservoir, Shasta County, California, United States of America	-121.3473947	41.1434047	-121.3466969	41.1441640			
Coyote Flat Reservoir		way	90275555	natural	water	-121.5907047	41.0396181	16	0.35			Shasta County	California	United States of America	us	Coyote Flat Reservoir, Shasta County, California, United States of America	-121.5911325	41.0387374	-121.5893915	41.0404975			
Horse Lake		way	90275807	natural	water	-121.8227230	41.1625225	16	0.35			Shasta County	California	United States of America	us	Horse Lake, Shasta County, California, United States of America	-121.8228984	41.1623491	-121.8225280	41.1626953			
Big Lake		way	90276225	natural	water	-121.4576026	41.1137009	16	0.35			Shasta County	California	United States of America	us	Big Lake, Shasta County, California, United States of America	-121.4583465	41.1122118	-121.4567290	41.1151794			
Smokey Lake		way	90277171	natural	water	-121.7398883	41.1147323	16	0.35			Shasta County	California	United States of America	us	Smokey Lake, Shasta County, California, United States of America	-121.7414828	41.1142854	-121.7378669	41.1151463			
Owl Lake		way	90303725	natural	water	-121.7242078	41.1077787	16	0.35			Shasta County	California	United States of America	us	Owl Lake, Shasta County, California, United States of America	-121.7245666	41.1073792	-121.7237229	41.1082178			
Soldier Mountain Reservoir		way	90304618	natural	water	-121.5656214	41.0416568	16	0.35			Shasta County	California	United States of America	us	Soldier Mountain Reservoir, Shasta County, California, United States of America	-121.5660651	41.0407499	-121.5650137	41.0426163			
Eastman Lake		way	90305636	natural	water	-121.4902359	41.1094013	16	0.35			Shasta County	California	United States of America	us	Eastman Lake, Shasta County, California, United States of America	-121.4920326	41.1077953	-121.4881660	41.1109939			
Lough Lake		way	86586360	natural	water	-121.9355831	41.7868639	16	0.35			Siskiyou County	California	United States of America	us	Lough Lake, Siskiyou County, California, United States of America	-121.9358380	41.7865606	-121.9352805	41.7870680			
Crystal Waterhole		way	86311644	natural	water	-121.3405311	41.4853315	16	0.35			Modoc County	California	United States of America	us	Crystal Waterhole, Modoc County, California, United States of America	-121.3407005	41.4852281	-121.3403576	41.4854156			
Whitehorse Flat Reservoir		relation	1328381	natural	water	-121.4023225	41.2843923	16	0.35			Modoc County	California	United States of America	us	Whitehorse Flat Reservoir, Modoc County, California, United States of America	-121.4128041	41.2751480	-121.3951780	41.2936312			
Tule Lake		way	14873347	natural	water	-121.4349133	41.8429273	16	0.35				California	United States of America	us	Tule Lake, California, United States of America	-121.4925566	41.8304858	-121.4078150	41.8556331			
Tulelake	توليلاكي، سيسكييوو، كاليفورنيا	way	33155516	place	city	-121.4773313	41.9559380	16	0.329267656941728		Tulelake	Siskiyou County	California	United States of America	us	Tulelake, Siskiyou County, California, United States of America	-121.4814562	41.9471859	-121.4635797	41.9609114	Q2453325	en:Tulelake, California	
Pit River		way	86343911	waterway	river	-121.1570887	41.0250290	17	0.325			Lassen County	California	United States of America	us	Pit River, Lassen County, California, United States of America	-121.3027430	40.9330801	-121.1144088	41.1716318			
Tule River		way	90304609	waterway	river	-121.4419969	41.0989210	17	0.325			Shasta County	California	United States of America	us	Tule River, Shasta County, California, United States of America	-121.4640351	41.0722760	-121.4015699	41.1332713			
Screwdriver Creek		way	90243248	multiple	river,stream	-121.7583281	41.0301263	17	0.325			Shasta County	California	United States of America	us	Screwdriver Creek, Shasta County, California, United States of America	-121.7670232	40.9977125	-121.7454273	41.0479175			
Little Tule River		way	90303028	waterway	river	-121.4667322	41.1013402	17	0.325			Shasta County	California	United States of America	us	Little Tule River, Shasta County, California, United States of America	-121.4928176	41.0860591	-121.4516619	41.1120283			
Fall River		way	90242625	multiple	river,stream	-121.4839915	41.0719681	17	0.325			Shasta County	California	United States of America	us	Fall River, Shasta County, California, United States of America	-121.5535435	40.9989800	-121.4359410	41.1144077			
East Branch Lost River		way	86662161	waterway	river	-121.1564589	41.9925351	17	0.325			Modoc County	California	United States of America	us	East Branch Lost River, Modoc County, California, United States of America	-121.1738719	41.9872667	-121.1492031	41.9976365			
The Island		node	358802953	place	island	-121.4760947	41.0971071	17	0.325			Shasta County	California	United States of America	us	The Island, Shasta County, California, United States of America	-121.4760947	41.0971071	-121.4760947	41.0971071			
Bird Island		node	358796892	place	island	-121.1535927	41.8598826	17	0.325			Modoc County	California	United States of America	us	Bird Island, Modoc County, California, United States of America	-121.1535927	41.8598826	-121.1535927	41.8598826			
Stone Island		node	358776626	place	island	-121.3686000	41.8240476	17	0.325			Modoc County	California	United States of America	us	Stone Island, Modoc County, California, United States of America	-121.3686000	41.8240476	-121.3686000	41.8240476			
Snake Island		node	358776163	place	island	-121.3419330	41.8693249	17	0.325			Modoc County	California	United States of America	us	Snake Island, Modoc County, California, United States of America	-121.3419330	41.8693249	-121.3419330	41.8693249			
Lands Island		node	358769056	place	island	-121.3302659	41.8515477	17	0.325			Modoc County	California	United States of America	us	Lands Island, Modoc County, California, United States of America	-121.3302659	41.8515477	-121.3302659	41.8515477			
Fairchild Island		node	358805829	place	island	-121.7397194	41.9782054	17	0.325			Siskiyou County	California	United States of America	us	Fairchild Island, Siskiyou County, California, United States of America	-121.7397194	41.9782054	-121.7397194	41.9782054			
Sheepy Creek Island		node	358775055	place	island	-121.8083332	41.9604269	17	0.325			Siskiyou County	California	United States of America	us	Sheepy Creek Island, Siskiyou County, California, United States of America	-121.8083332	41.9604269	-121.8083332	41.9604269			
Otey Island		node	358772212	place	island	-121.8383345	41.9951482	17	0.325			Siskiyou County	California	United States of America	us	Otey Island, Siskiyou County, California, United States of America	-121.8383345	41.9951482	-121.8383345	41.9951482			
Hambone Island		node	358798047	place	island	-121.6174926	41.3493268	17	0.325			Siskiyou County	California	United States of America	us	Hambone Island, Siskiyou County, California, United States of America	-121.6174926	41.3493268	-121.6174926	41.3493268			
Dorris	دورريس، سيسكييوو، كاليفورنيا	way	33155108	place	city	-121.9210328	41.9646910	16	0.319661981088652		Dorris	Siskiyou County	California	United States of America	us	Dorris, Siskiyou County, California, United States of America	-121.9306730	41.9565019	-121.9113690	41.9745410	Q953781	en:Dorris, California	
Stump Creek Butte		node	358800104	natural	peak	-121.9499978	41.0909913	18	0.3			Shasta County	California	United States of America	us	Stump Creek Butte, Shasta County, California, United States of America	-121.9499978	41.0909913	-121.9499978	41.0909913			
Pigeon Hill		node	358799084	natural	peak	-121.9605539	41.1596030	18	0.3			Shasta County	California	United States of America	us	Pigeon Hill, Shasta County, California, United States of America	-121.9605539	41.1596030	-121.9605539	41.1596030			
Oak Mountain		node	358798965	natural	peak	-121.9691647	41.0226571	18	0.3			Shasta County	California	United States of America	us	Oak Mountain, Shasta County, California, United States of America	-121.9691647	41.0226571	-121.9691647	41.0226571			
Little Devils Mountain		node	358798553	natural	peak	-121.9074966	41.1018251	18	0.3			Shasta County	California	United States of America	us	Little Devils Mountain, Shasta County, California, United States of America	-121.9074966	41.1018251	-121.9074966	41.1018251			
Grizzly Peak		node	358798017	natural	peak	-121.9791655	41.1446028	18	0.3			Shasta County	California	United States of America	us	Grizzly Peak, Shasta County, California, United States of America	-121.9791655	41.1446028	-121.9791655	41.1446028			
Dutchman Peak		node	358797645	natural	peak	-121.9944436	41.0915466	18	0.3			Shasta County	California	United States of America	us	Dutchman Peak, Shasta County, California, United States of America	-121.9944436	41.0915466	-121.9944436	41.0915466			
Devils Mountain		node	358797538	natural	peak	-121.9144412	41.1193251	18	0.3			Shasta County	California	United States of America	us	Devils Mountain, Shasta County, California, United States of America	-121.9144412	41.1193251	-121.9144412	41.1193251			
Red Mountain		node	358773357	natural	peak	-121.8027711	41.0959925	18	0.3			Shasta County	California	United States of America	us	Red Mountain, Shasta County, California, United States of America	-121.8027711	41.0959925	-121.8027711	41.0959925			
Bald Mountain		node	358761361	natural	peak	-121.8552727	41.0968254	18	0.3			Shasta County	California	United States of America	us	Bald Mountain, Shasta County, California, United States of America	-121.8552727	41.0968254	-121.8552727	41.0968254			
North Red Mountain		node	358795396	natural	peak	-121.8055489	41.1034926	18	0.3			Shasta County	California	United States of America	us	North Red Mountain, Shasta County, California, United States of America	-121.8055489	41.1034926	-121.8055489	41.1034926			
Jamo Point		node	358808911	natural	peak	-121.6227642	41.0193276	18	0.3			Shasta County	California	United States of America	us	Jamo Point, Shasta County, California, United States of America	-121.6227642	41.0193276	-121.6227642	41.0193276			
Soldier Mountain		node	358799999	natural	peak	-121.5635968	41.0740506	18	0.3			Shasta County	California	United States of America	us	Soldier Mountain, Shasta County, California, United States of America	-121.5635968	41.0740506	-121.5635968	41.0740506			
Saddle Mountain		node	358799957	natural	peak	-121.4958160	41.0196070	18	0.3			Shasta County	California	United States of America	us	Saddle Mountain, Shasta County, California, United States of America	-121.4958160	41.0196070	-121.4958160	41.0196070			
Haney Mountain		node	358798051	natural	peak	-121.4824819	41.0037738	18	0.3			Shasta County	California	United States of America	us	Haney Mountain, Shasta County, California, United States of America	-121.4824819	41.0037738	-121.4824819	41.0037738			
Fort Mountain		node	358797832	natural	peak	-121.5930420	41.0671059	18	0.3			Shasta County	California	United States of America	us	Fort Mountain, Shasta County, California, United States of America	-121.5930420	41.0671059	-121.5930420	41.0671059			
Brushy Butte		node	358762556	natural	peak	-121.4463730	41.1779407	18	0.3			Shasta County	California	United States of America	us	Brushy Butte, Shasta County, California, United States of America	-121.4463730	41.1779407	-121.4463730	41.1779407			
Stone Coal Mountain		node	358807447	natural	peak	-121.0041370	41.3832227	18	0.3			Modoc County	California	United States of America	us	Stone Coal Mountain, Modoc County, California, United States of America	-121.0041370	41.3832227	-121.0041370	41.3832227			
Smith Butte		node	358815454	natural	peak	-121.3024809	41.2884974	18	0.3			Modoc County	California	United States of America	us	Smith Butte, Modoc County, California, United States of America	-121.3024809	41.2884974	-121.3024809	41.2884974			
Roberts Butte		node	358799426	natural	peak	-121.1241404	41.2254446	18	0.3			Modoc County	California	United States of America	us	Roberts Butte, Modoc County, California, United States of America	-121.1241404	41.2254446	-121.1241404	41.2254446			
Jimmerson Mountain		node	358798340	natural	peak	-121.2594231	41.2346093	18	0.3			Modoc County	California	United States of America	us	Jimmerson Mountain, Modoc County, California, United States of America	-121.2594231	41.2346093	-121.2594231	41.2346093			
Crank Mountain		node	358797422	natural	peak	-121.1438649	41.3837765	18	0.3			Modoc County	California	United States of America	us	Crank Mountain, Modoc County, California, United States of America	-121.1438649	41.3837765	-121.1438649	41.3837765			
Ostrom Point		node	358795398	natural	peak	-121.1183080	41.3615549	18	0.3			Modoc County	California	United States of America	us	Ostrom Point, Modoc County, California, United States of America	-121.1183080	41.3615549	-121.1183080	41.3615549			
Cat Hill		node	358795384	natural	peak	-121.0702507	41.3704443	18	0.3			Modoc County	California	United States of America	us	Cat Hill, Modoc County, California, United States of America	-121.0702507	41.3704443	-121.0702507	41.3704443			
Iron Mountain		node	358795391	natural	peak	-121.0669169	41.3290558	18	0.3			Modoc County	California	United States of America	us	Iron Mountain, Modoc County, California, United States of America	-121.0669169	41.3290558	-121.0669169	41.3290558			
Black Butte		node	358795382	natural	peak	-121.0838620	41.3279444	18	0.3			Modoc County	California	United States of America	us	Black Butte, Modoc County, California, United States of America	-121.0838620	41.3279444	-121.0838620	41.3279444			
Taylor Mountain		node	358777095	natural	peak	-121.3510937	41.2776637	18	0.3			Modoc County	California	United States of America	us	Taylor Mountain, Modoc County, California, United States of America	-121.3510937	41.2776637	-121.3510937	41.2776637			
Splawn Mountain		node	358776387	natural	peak	-121.1533088	41.2940549	18	0.3			Modoc County	California	United States of America	us	Splawn Mountain, Modoc County, California, United States of America	-121.1533088	41.2940549	-121.1533088	41.2940549			
Rattlesnake Butte		node	358773236	natural	peak	-121.0896957	41.3326665	18	0.3			Modoc County	California	United States of America	us	Rattlesnake Butte, Modoc County, California, United States of America	-121.0896957	41.3326665	-121.0896957	41.3326665			
Fox Mountain		node	358766100	natural	peak	-121.0363599	41.2662789	18	0.3			Modoc County	California	United States of America	us	Fox Mountain, Modoc County, California, United States of America	-121.0363599	41.2662789	-121.0363599	41.2662789			
Egg Lake Butte		node	358765218	natural	peak	-121.3030365	41.2976640	18	0.3			Modoc County	California	United States of America	us	Egg Lake Butte, Modoc County, California, United States of America	-121.3030365	41.2976640	-121.3030365	41.2976640			
Donica Mountain		node	358764843	natural	peak	-121.1633095	41.3326655	18	0.3			Modoc County	California	United States of America	us	Donica Mountain, Modoc County, California, United States of America	-121.1633095	41.3326655	-121.1633095	41.3326655			
Allen Butte		node	358760794	natural	peak	-121.0877513	41.3598885	18	0.3			Modoc County	California	United States of America	us	Allen Butte, Modoc County, California, United States of America	-121.0877513	41.3598885	-121.0877513	41.3598885			
Twin Sister		node	358807639	natural	peak	-121.3816556	41.7512708	18	0.3			Modoc County	California	United States of America	us	Twin Sister, Modoc County, California, United States of America	-121.3816556	41.7512708	-121.3816556	41.7512708			
Hollenbeck Butte		node	358806581	natural	peak	-121.2738710	41.4676630	18	0.3			Modoc County	California	United States of America	us	Hollenbeck Butte, Modoc County, California, United States of America	-121.2738710	41.4676630	-121.2738710	41.4676630			
Deer Hill		node	358806328	natural	peak	-121.1463670	41.6057189	18	0.3			Modoc County	California	United States of America	us	Deer Hill, Modoc County, California, United States of America	-121.1463670	41.6057189	-121.1463670	41.6057189			
Bump Heads		node	358806184	natural	peak	-121.0616433	41.8190505	18	0.3			Modoc County	California	United States of America	us	Bump Heads, Modoc County, California, United States of America	-121.0616433	41.8190505	-121.0616433	41.8190505			
Webb Butte		node	358804229	natural	peak	-121.2288685	41.4165530	18	0.3			Modoc County	California	United States of America	us	Webb Butte, Modoc County, California, United States of America	-121.2288685	41.4165530	-121.2288685	41.4165530			
McKay Butte		node	358798757	natural	peak	-121.1185866	41.4582207	18	0.3			Modoc County	California	United States of America	us	McKay Butte, Modoc County, California, United States of America	-121.1185866	41.4582207	-121.1185866	41.4582207			
Lone Pine Butte		node	358798609	natural	peak	-121.0977543	41.6765521	18	0.3			Modoc County	California	United States of America	us	Lone Pine Butte, Modoc County, California, United States of America	-121.0977543	41.6765521	-121.0977543	41.6765521			
Little Horse Mountain		node	358798569	natural	peak	-121.3319331	41.8987691	18	0.3			Modoc County	California	United States of America	us	Little Horse Mountain, Modoc County, California, United States of America	-121.3319331	41.8987691	-121.3319331	41.8987691			
Horse Mountain		node	358798183	natural	peak	-121.2988769	41.8934919	18	0.3			Modoc County	California	United States of America	us	Horse Mountain, Modoc County, California, United States of America	-121.2988769	41.8934919	-121.2988769	41.8934919			
Happy Camp Mountain		node	358798059	natural	peak	-121.1177530	41.4223877	18	0.3			Modoc County	California	United States of America	us	Happy Camp Mountain, Modoc County, California, United States of America	-121.1177530	41.4223877	-121.1177530	41.4223877			
Fleener Butte		node	358797811	natural	peak	-121.1385875	41.4646093	18	0.3			Modoc County	California	United States of America	us	Fleener Butte, Modoc County, California, United States of America	-121.1385875	41.4646093	-121.1385875	41.4646093			
Double Head Mountain		node	358797597	natural	peak	-121.1669249	41.7626617	18	0.3			Modoc County	California	United States of America	us	Double Head Mountain, Modoc County, California, United States of America	-121.1669249	41.7626617	-121.1669249	41.7626617			
Cuppy Butte		node	358797469	natural	peak	-121.0694176	41.4123883	18	0.3			Modoc County	California	United States of America	us	Cuppy Butte, Modoc County, California, United States of America	-121.0694176	41.4123883	-121.0694176	41.4123883			
Carr Butte		node	358797165	natural	peak	-121.1702620	41.9559921	18	0.3			Modoc County	California	United States of America	us	Carr Butte, Modoc County, California, United States of America	-121.1702620	41.9559921	-121.1702620	41.9559921			
Tucker Butte		node	358777487	natural	peak	-121.2602633	41.7951604	18	0.3			Modoc County	California	United States of America	us	Tucker Butte, Modoc County, California, United States of America	-121.2602633	41.7951604	-121.2602633	41.7951604			
Timber Mountain		node	358777351	natural	peak	-121.2960957	41.6290505	18	0.3			Modoc County	California	United States of America	us	Timber Mountain, Modoc County, California, United States of America	-121.2960957	41.6290505	-121.2960957	41.6290505			
Spaulding Butte		node	358776370	natural	peak	-121.1346992	41.5437753	18	0.3			Modoc County	California	United States of America	us	Spaulding Butte, Modoc County, California, United States of America	-121.1346992	41.5437753	-121.1346992	41.5437753			
Sagebrush Butte		node	358774075	natural	peak	-121.0349769	41.9062715	18	0.3			Modoc County	California	United States of America	us	Sagebrush Butte, Modoc County, California, United States of America	-121.0349769	41.9062715	-121.0349769	41.9062715			
Little Sand Butte		node	358769526	natural	peak	-121.4164992	41.6701779	18	0.3			Modoc County	California	United States of America	us	Little Sand Butte, Modoc County, California, United States of America	-121.4164992	41.6701779	-121.4164992	41.6701779			
Knobcone Butte		node	358768803	natural	peak	-121.0796971	41.5979420	18	0.3			Modoc County	California	United States of America	us	Knobcone Butte, Modoc County, California, United States of America	-121.0796971	41.5979420	-121.0796971	41.5979420			
Harvey Jones Butte		node	358767232	natural	peak	-121.2552624	41.7523834	18	0.3			Modoc County	California	United States of America	us	Harvey Jones Butte, Modoc County, California, United States of America	-121.2552624	41.7523834	-121.2552624	41.7523834			
East Sand Butte		node	358765111	natural	volcano	-121.3842635	41.6814675	18	0.3			Modoc County	California	United States of America	us	East Sand Butte, Modoc County, California, United States of America	-121.3842635	41.6814675	-121.3842635	41.6814675			
Damons Butte		node	358764446	natural	peak	-121.1977572	41.5218303	18	0.3			Modoc County	California	United States of America	us	Damons Butte, Modoc County, California, United States of America	-121.1977572	41.5218303	-121.1977572	41.5218303			
Coyote Butte		node	358764231	natural	peak	-121.2760974	41.8212710	18	0.3			Modoc County	California	United States of America	us	Coyote Butte, Modoc County, California, United States of America	-121.2760974	41.8212710	-121.2760974	41.8212710			
Casuse Mountain		node	358763231	natural	peak	-121.3355433	41.8012706	18	0.3			Modoc County	California	United States of America	us	Casuse Mountain, Modoc County, California, United States of America	-121.3355433	41.8012706	-121.3355433	41.8012706			
Big Sand Butte		node	358761926	natural	volcano	-121.4190309	41.6907486	18	0.3			Modoc County	California	United States of America	us	Big Sand Butte, Modoc County, California, United States of America	-121.4190309	41.6907486	-121.4190309	41.6907486			
Juniper Butte		node	59952263	natural	peak	-121.4509942	41.7914043	18	0.3			Modoc County	California	United States of America	us	Juniper Butte, Modoc County, California, United States of America	-121.4509942	41.7914043	-121.4509942	41.7914043			
Pilot Butte		node	358772673	natural	peak	-121.1152510	41.2101669	18	0.3			Modoc County	California	United States of America	us	Pilot Butte, Modoc County, California, United States of America	-121.1152510	41.2101669	-121.1152510	41.2101669			
Squatty Butte		node	358800043	natural	peak	-121.2202631	41.8809929	18	0.3			Modoc County	California	United States of America	us	Squatty Butte, Modoc County, California, United States of America	-121.2202631	41.8809929	-121.2202631	41.8809929			
Dorris Hill		node	358805565	natural	peak	-121.9311163	41.9901467	18	0.3			Siskiyou County	California	United States of America	us	Dorris Hill, Siskiyou County, California, United States of America	-121.9311163	41.9901467	-121.9311163	41.9901467			
D Hill		node	358805562	natural	peak	-121.8900034	41.9637590	18	0.3			Siskiyou County	California	United States of America	us	D Hill, Siskiyou County, California, United States of America	-121.8900034	41.9637590	-121.8900034	41.9637590			
Watakma Butte		node	358807694	natural	peak	-121.8933348	41.4348788	18	0.3			Siskiyou County	California	United States of America	us	Watakma Butte, Siskiyou County, California, United States of America	-121.8933348	41.4348788	-121.8933348	41.4348788			
Rattlesnake Butte		node	358807152	natural	peak	-121.9741725	41.7645947	18	0.3			Siskiyou County	California	United States of America	us	Rattlesnake Butte, Siskiyou County, California, United States of America	-121.9741725	41.7645947	-121.9741725	41.7645947			
East Jerome Butte		node	358806395	natural	peak	-121.9972288	41.7423726	18	0.3			Siskiyou County	California	United States of America	us	East Jerome Butte, Siskiyou County, California, United States of America	-121.9972288	41.7423726	-121.9972288	41.7423726			
Murch Butte		node	358805576	natural	peak	-121.9319490	41.8034835	18	0.3			Siskiyou County	California	United States of America	us	Murch Butte, Siskiyou County, California, United States of America	-121.9319490	41.8034835	-121.9319490	41.8034835			
Baldy		node	358805557	natural	peak	-121.8919476	41.8240393	18	0.3			Siskiyou County	California	United States of America	us	Baldy, Siskiyou County, California, United States of America	-121.8919476	41.8240393	-121.8919476	41.8240393			
Stephens Butte		node	358802851	natural	peak	-121.8819470	41.5140444	18	0.3			Siskiyou County	California	United States of America	us	Stephens Butte, Siskiyou County, California, United States of America	-121.8819470	41.5140444	-121.8819470	41.5140444			
Rainbow Mountain		node	358799286	natural	peak	-121.9561147	41.4734887	18	0.3			Siskiyou County	California	United States of America	us	Rainbow Mountain, Siskiyou County, California, United States of America	-121.9561147	41.4734887	-121.9561147	41.4734887			
Orr Mountain		node	358798999	natural	peak	-121.9750054	41.6673741	18	0.3			Siskiyou County	California	United States of America	us	Orr Mountain, Siskiyou County, California, United States of America	-121.9750054	41.6673741	-121.9750054	41.6673741			
Kluntuchi Butte		node	358798420	natural	peak	-121.8502784	41.4393236	18	0.3			Siskiyou County	California	United States of America	us	Kluntuchi Butte, Siskiyou County, California, United States of America	-121.8502784	41.4393236	-121.8502784	41.4393236			
Horse Peak		node	358798185	natural	peak	-121.8580573	41.4896005	18	0.3			Siskiyou County	California	United States of America	us	Horse Peak, Siskiyou County, California, United States of America	-121.8580573	41.4896005	-121.8580573	41.4896005			
Garner Butte		node	358797897	natural	peak	-121.8688913	41.6245983	18	0.3			Siskiyou County	California	United States of America	us	Garner Butte, Siskiyou County, California, United States of America	-121.8688913	41.6245983	-121.8688913	41.6245983			
Dry Creek Peak		node	358797621	natural	peak	-121.9733370	41.4629334	18	0.3			Siskiyou County	California	United States of America	us	Dry Creek Peak, Siskiyou County, California, United States of America	-121.9733370	41.4629334	-121.9733370	41.4629334			
Cedar Mountain		node	358797214	natural	peak	-121.9072257	41.7101521	18	0.3			Siskiyou County	California	United States of America	us	Cedar Mountain, Siskiyou County, California, United States of America	-121.9072257	41.7101521	-121.9072257	41.7101521			
J F Mountain		node	358795177	natural	peak	-121.8450015	41.8793167	18	0.3			Siskiyou County	California	United States of America	us	J F Mountain, Siskiyou County, California, United States of America	-121.8450015	41.8793167	-121.8450015	41.8793167			
Sheep Mountain		node	358775048	natural	peak	-121.8858363	41.8023730	18	0.3			Siskiyou County	California	United States of America	us	Sheep Mountain, Siskiyou County, California, United States of America	-121.8858363	41.8023730	-121.8858363	41.8023730			
Mahogany Mountain		node	358770044	natural	peak	-121.8586131	41.8751499	18	0.3			Siskiyou County	California	United States of America	us	Mahogany Mountain, Siskiyou County, California, United States of America	-121.8586131	41.8751499	-121.8586131	41.8751499			
Little Horse Peak		node	358769485	natural	peak	-121.8869472	41.5365439	18	0.3			Siskiyou County	California	United States of America	us	Little Horse Peak, Siskiyou County, California, United States of America	-121.8869472	41.5365439	-121.8869472	41.5365439			
Juniper Knoll		node	358768534	natural	peak	-121.9869511	41.8370932	18	0.3			Siskiyou County	California	United States of America	us	Juniper Knoll, Siskiyou County, California, United States of America	-121.9869511	41.8370932	-121.9869511	41.8370932			
Inlow Butte		node	358768052	natural	peak	-121.8886142	41.8565388	18	0.3			Siskiyou County	California	United States of America	us	Inlow Butte, Siskiyou County, California, United States of America	-121.8886142	41.8565388	-121.8886142	41.8565388			
Haight Mountain		node	358767045	natural	peak	-121.9641711	41.5298766	18	0.3			Siskiyou County	California	United States of America	us	Haight Mountain, Siskiyou County, California, United States of America	-121.9641711	41.5298766	-121.9641711	41.5298766			
Dead Horse Summit		node	358797503	natural	peak	-121.7697164	41.2032156	18	0.3			Siskiyou County	California	United States of America	us	Dead Horse Summit, Siskiyou County, California, United States of America	-121.7697164	41.2032156	-121.7697164	41.2032156			
Lookout Point		node	358806782	natural	peak	-121.8030546	41.4173798	18	0.3			Siskiyou County	California	United States of America	us	Lookout Point, Siskiyou County, California, United States of America	-121.8030546	41.4173798	-121.8030546	41.4173798			
Trout Creek Butte		node	358800431	natural	peak	-121.9280574	41.4179346	18	0.3			Siskiyou County	California	United States of America	us	Trout Creek Butte, Siskiyou County, California, United States of America	-121.9280574	41.4179346	-121.9280574	41.4179346			
Stillwater Butte		node	358800082	natural	peak	-121.8033302	41.3107148	18	0.3			Siskiyou County	California	United States of America	us	Stillwater Butte, Siskiyou County, California, United States of America	-121.8033302	41.3107148	-121.8033302	41.3107148			
Buck Mountain		node	358799780	natural	peak	-121.8324988	41.3734914	18	0.3			Siskiyou County	California	United States of America	us	Buck Mountain, Siskiyou County, California, United States of America	-121.8324988	41.3734914	-121.8324988	41.3734914			
Sheepheaven Butte		node	358799635	natural	peak	-121.8136086	41.3262701	18	0.3			Siskiyou County	California	United States of America	us	Sheepheaven Butte, Siskiyou County, California, United States of America	-121.8136086	41.3262701	-121.8136086	41.3262701			
Little Black Fox Mountain		node	358798540	natural	peak	-121.8677768	41.3465472	18	0.3			Siskiyou County	California	United States of America	us	Little Black Fox Mountain, Siskiyou County, California, United States of America	-121.8677768	41.3465472	-121.8677768	41.3465472			
Fons Butte		node	358797822	natural	peak	-121.9944474	41.4123785	18	0.3			Siskiyou County	California	United States of America	us	Fons Butte, Siskiyou County, California, United States of America	-121.9944474	41.4123785	-121.9944474	41.4123785			
Cabin Butte		node	358797124	natural	peak	-121.8433319	41.3496029	18	0.3			Siskiyou County	California	United States of America	us	Cabin Butte, Siskiyou County, California, United States of America	-121.8433319	41.3496029	-121.8433319	41.3496029			
Black Fox Mountain		node	358762017	natural	peak	-121.8902772	41.3462693	18	0.3			Siskiyou County	California	United States of America	us	Black Fox Mountain, Siskiyou County, California, United States of America	-121.8902772	41.3462693	-121.8902772	41.3462693			
Indian Spring Mountain		node	358806627	natural	peak	-121.5199890	41.3129392	18	0.3			Siskiyou County	California	United States of America	us	Indian Spring Mountain, Siskiyou County, California, United States of America	-121.5199890	41.3129392	-121.5199890	41.3129392			
Hunters Hill		node	358798232	natural	peak	-121.6930509	41.3687703	18	0.3			Siskiyou County	California	United States of America	us	Hunters Hill, Siskiyou County, California, United States of America	-121.6930509	41.3687703	-121.6930509	41.3687703			
Hambone Butte		node	358798043	natural	peak	-121.6386044	41.3454379	18	0.3			Siskiyou County	California	United States of America	us	Hambone Butte, Siskiyou County, California, United States of America	-121.6386044	41.3454379	-121.6386044	41.3454379			
Bear Mountain		node	358796803	natural	peak	-121.7188836	41.3018264	18	0.3			Siskiyou County	California	United States of America	us	Bear Mountain, Siskiyou County, California, United States of America	-121.7188836	41.3018264	-121.7188836	41.3018264			
Stieber Lava Butte		node	4915939708	natural	volcano	-121.6259588	41.6899312	18	0.3			Siskiyou County	California	United States of America	us	Stieber Lava Butte, Siskiyou County, California, United States of America	-121.6259588	41.6899312	-121.6259588	41.6899312			
Yellow Butte		node	358807736	natural	peak	-121.6374960	41.7584888	18	0.3			Siskiyou County	California	United States of America	us	Yellow Butte, Siskiyou County, California, United States of America	-121.6374960	41.7584888	-121.6374960	41.7584888			
Yellowjacket Butte		node	358807740	natural	peak	-121.5522155	41.5126589	18	0.3			Siskiyou County	California	United States of America	us	Yellowjacket Butte, Siskiyou County, California, United States of America	-121.5522155	41.5126589	-121.5522155	41.5126589			
Sheep Camp Butte		node	358807253	natural	peak	-121.6038840	41.7929334	18	0.3			Siskiyou County	California	United States of America	us	Sheep Camp Butte, Siskiyou County, California, United States of America	-121.6038840	41.7929334	-121.6038840	41.7929334			
Red Shale Butte		node	358807176	natural	peak	-121.5236038	41.5796033	18	0.3			Siskiyou County	California	United States of America	us	Red Shale Butte, Siskiyou County, California, United States of America	-121.5236038	41.5796033	-121.5236038	41.5796033			
Red Cap Mountain		node	358807162	natural	peak	-121.7463883	41.5451563	18	0.3			Siskiyou County	California	United States of America	us	Red Cap Mountain, Siskiyou County, California, United States of America	-121.7463883	41.5451563	-121.7463883	41.5451563			
Lookout Butte		node	358806774	natural	peak	-121.6255512	41.6512680	18	0.3			Siskiyou County	California	United States of America	us	Lookout Butte, Siskiyou County, California, United States of America	-121.6255512	41.6512680	-121.6255512	41.6512680			
Grouse Hill		node	358806541	natural	peak	-121.6311071	41.6132125	18	0.3			Siskiyou County	California	United States of America	us	Grouse Hill, Siskiyou County, California, United States of America	-121.6311071	41.6132125	-121.6311071	41.6132125			
Barntop Mountain		node	358806026	natural	peak	-121.5730496	41.8793214	18	0.3			Siskiyou County	California	United States of America	us	Barntop Mountain, Siskiyou County, California, United States of America	-121.5730496	41.8793214	-121.5730496	41.8793214			
Hill 23		node	358805853	natural	peak	-121.7144426	41.6426556	18	0.3			Siskiyou County	California	United States of America	us	Hill 23, Siskiyou County, California, United States of America	-121.7144426	41.6426556	-121.7144426	41.6426556			
Hill 22		node	358805851	natural	peak	-121.7397210	41.6440440	18	0.3			Siskiyou County	California	United States of America	us	Hill 22, Siskiyou County, California, United States of America	-121.7397210	41.6440440	-121.7397210	41.6440440			
Coyote Point		node	358805819	natural	peak	-121.7436087	41.9184841	18	0.3			Siskiyou County	California	United States of America	us	Coyote Point, Siskiyou County, California, United States of America	-121.7436087	41.9184841	-121.7436087	41.9184841			
Chip Butte		node	358805559	natural	peak	-121.8024999	41.8693174	18	0.3			Siskiyou County	California	United States of America	us	Chip Butte, Siskiyou County, California, United States of America	-121.8024999	41.8693174	-121.8024999	41.8693174			
Buck Hill		node	358802818	natural	peak	-121.7433327	41.5182123	18	0.3			Siskiyou County	California	United States of America	us	Buck Hill, Siskiyou County, California, United States of America	-121.7433327	41.5182123	-121.7433327	41.5182123			
Hopper Hill		node	358802819	natural	peak	-121.7097205	41.5204349	18	0.3			Siskiyou County	California	United States of America	us	Hopper Hill, Siskiyou County, California, United States of America	-121.7097205	41.5204349	-121.7097205	41.5204349			
Fawn Hill		node	358802815	natural	peak	-121.7255544	41.5179348	18	0.3			Siskiyou County	California	United States of America	us	Fawn Hill, Siskiyou County, California, United States of America	-121.7255544	41.5179348	-121.7255544	41.5179348			
Toad Mountain		node	358800401	natural	peak	-121.7644427	41.4146023	18	0.3			Siskiyou County	California	United States of America	us	Toad Mountain, Siskiyou County, California, United States of America	-121.7644427	41.4146023	-121.7644427	41.4146023			
Three Sisters		node	358800374	natural	peak	-121.7397207	41.7240429	18	0.3			Siskiyou County	California	United States of America	us	Three Sisters, Siskiyou County, California, United States of America	-121.7397207	41.7240429	-121.7397207	41.7240429			
Squaw Peak		node	358800049	natural	peak	-121.7636110	41.5573782	18	0.3			Siskiyou County	California	United States of America	us	Squaw Peak, Siskiyou County, California, United States of America	-121.7636110	41.5573782	-121.7636110	41.5573782			
Snell Butte		node	358799978	natural	peak	-121.5030461	41.4387714	18	0.3			Siskiyou County	California	United States of America	us	Snell Butte, Siskiyou County, California, United States of America	-121.5030461	41.4387714	-121.5030461	41.4387714			
Six Shooter Butte		node	358799672	natural	peak	-121.6191622	41.5101583	18	0.3			Siskiyou County	California	United States of America	us	Six Shooter Butte, Siskiyou County, California, United States of America	-121.6191622	41.5101583	-121.6191622	41.5101583			
Shotgun Peak		node	358799637	natural	peak	-121.5491601	41.5307143	18	0.3			Siskiyou County	California	United States of America	us	Shotgun Peak, Siskiyou County, California, United States of America	-121.5491601	41.5307143	-121.5491601	41.5307143			
Sheepy Peak		node	358799636	natural	peak	-121.5769381	41.9518200	18	0.3			Siskiyou County	California	United States of America	us	Sheepy Peak, Siskiyou County, California, United States of America	-121.5769381	41.9518200	-121.5769381	41.9518200			
Red Hill		node	358799345	natural	peak	-121.6449963	41.5429355	18	0.3			Siskiyou County	California	United States of America	us	Red Hill, Siskiyou County, California, United States of America	-121.6449963	41.5429355	-121.6449963	41.5429355			
Red Hill		node	358799342	natural	peak	-121.5524919	41.4182154	18	0.3			Siskiyou County	California	United States of America	us	Red Hill, Siskiyou County, California, United States of America	-121.5524919	41.4182154	-121.5524919	41.4182154			
Pumice Stone Mountain		node	358799255	natural	peak	-121.7144428	41.5612677	18	0.3			Siskiyou County	California	United States of America	us	Pumice Stone Mountain, Siskiyou County, California, United States of America	-121.7144428	41.5612677	-121.7144428	41.5612677			
Porcupine Butte		node	358799203	natural	peak	-121.6030492	41.4257149	18	0.3			Siskiyou County	California	United States of America	us	Porcupine Butte, Siskiyou County, California, United States of America	-121.6030492	41.4257149	-121.6030492	41.4257149			
Oso Butte		node	358799000	natural	peak	-121.8011109	41.4518238	18	0.3			Siskiyou County	California	United States of America	us	Oso Butte, Siskiyou County, California, United States of America	-121.8011109	41.4518238	-121.8011109	41.4518238			
Nine Buck Butte		node	358798934	natural	peak	-121.7916670	41.4851567	18	0.3			Siskiyou County	California	United States of America	us	Nine Buck Butte, Siskiyou County, California, United States of America	-121.7916670	41.4851567	-121.7916670	41.4851567			
Medicine Mountain		node	358798780	natural	peak	-121.6119398	41.5637689	18	0.3			Siskiyou County	California	United States of America	us	Medicine Mountain, Siskiyou County, California, United States of America	-121.6119398	41.5637689	-121.6119398	41.5637689			
Lyons Peak		node	358798687	natural	peak	-121.5072144	41.5790480	18	0.3			Siskiyou County	California	United States of America	us	Lyons Peak, Siskiyou County, California, United States of America	-121.5072144	41.5790480	-121.5072144	41.5790480			
Little Mount Hoffman		node	358798570	natural	peak	-121.6597190	41.5787682	18	0.3			Siskiyou County	California	United States of America	us	Little Mount Hoffman, Siskiyou County, California, United States of America	-121.6597190	41.5787682	-121.6597190	41.5787682			
Little Glass Mountain		node	358798558	natural	peak	-121.6861086	41.5673790	18	0.3			Siskiyou County	California	United States of America	us	Little Glass Mountain, Siskiyou County, California, United States of America	-121.6861086	41.5673790	-121.6861086	41.5673790			
Mount Hoffman		node	358798159	natural	peak	-121.5544382	41.6107137	18	0.3			Siskiyou County	California	United States of America	us	Mount Hoffman, Siskiyou County, California, United States of America	-121.5544382	41.6107137	-121.5544382	41.6107137			
Harris Mountain		node	358798072	natural	peak	-121.7561099	41.4498797	18	0.3			Siskiyou County	California	United States of America	us	Harris Mountain, Siskiyou County, California, United States of America	-121.7561099	41.4498797	-121.7561099	41.4498797			
Glass Mountain		node	358797933	natural	peak	-121.5044367	41.6015479	18	0.3			Siskiyou County	California	United States of America	us	Glass Mountain, Siskiyou County, California, United States of America	-121.5044367	41.6015479	-121.5044367	41.6015479			
Garner Mountain		node	358797898	natural	peak	-121.8094452	41.5918217	18	0.3			Siskiyou County	California	United States of America	us	Garner Mountain, Siskiyou County, California, United States of America	-121.8094452	41.5918217	-121.8094452	41.5918217			
Mount Dome		node	358797586	natural	peak	-121.6869414	41.8098760	18	0.3			Siskiyou County	California	United States of America	us	Mount Dome, Siskiyou County, California, United States of America	-121.6869414	41.8098760	-121.6869414	41.8098760			
Doe Peak		node	358797577	natural	peak	-121.7413884	41.5057124	18	0.3			Siskiyou County	California	United States of America	us	Doe Peak, Siskiyou County, California, United States of America	-121.7413884	41.5057124	-121.7413884	41.5057124			
Cub Hill		node	358797463	natural	peak	-121.7925000	41.4643237	18	0.3			Siskiyou County	California	United States of America	us	Cub Hill, Siskiyou County, California, United States of America	-121.7925000	41.4643237	-121.7925000	41.4643237			
Cinder Cone		node	358797305	natural	peak	-121.6477742	41.5284910	18	0.3			Siskiyou County	California	United States of America	us	Cinder Cone, Siskiyou County, California, United States of America	-121.6477742	41.5284910	-121.6477742	41.5284910			
Bonita Butte		node	358796997	natural	peak	-121.6624966	41.7365442	18	0.3			Siskiyou County	California	United States of America	us	Bonita Butte, Siskiyou County, California, United States of America	-121.6624966	41.7365442	-121.6624966	41.7365442			
Badger Peak		node	358796679	natural	peak	-121.6291626	41.5984906	18	0.3			Siskiyou County	California	United States of America	us	Badger Peak, Siskiyou County, California, United States of America	-121.6291626	41.5984906	-121.6291626	41.5984906			
Asperin Butte		node	358796662	natural	peak	-121.8180566	41.4973786	18	0.3			Siskiyou County	California	United States of America	us	Asperin Butte, Siskiyou County, California, United States of America	-121.8180566	41.4973786	-121.8180566	41.4973786			
Typhoon Mesa		node	358795135	natural	peak	-121.8177789	41.5359891	18	0.3			Siskiyou County	California	United States of America	us	Typhoon Mesa, Siskiyou County, California, United States of America	-121.8177789	41.5359891	-121.8177789	41.5359891			
Cranston Knob		node	358795117	natural	volcano	-121.5266670	41.7702652	18	0.3			Siskiyou County	California	United States of America	us	Cranston Knob, Siskiyou County, California, United States of America	-121.5266670	41.7702652	-121.5266670	41.7702652			
Harris Knoll		node	358795092	natural	peak	-121.5388828	41.7676571	18	0.3			Siskiyou County	California	United States of America	us	Harris Knoll, Siskiyou County, California, United States of America	-121.5388828	41.7676571	-121.5388828	41.7676571			
Howe Point		node	358795084	natural	peak	-121.5369382	41.7671017	18	0.3			Siskiyou County	California	United States of America	us	Howe Point, Siskiyou County, California, United States of America	-121.5369382	41.7671017	-121.5369382	41.7671017			
Thomas Hill		node	358795060	natural	peak	-121.5397160	41.7682127	18	0.3			Siskiyou County	California	United States of America	us	Thomas Hill, Siskiyou County, California, United States of America	-121.5397160	41.7682127	-121.5397160	41.7682127			
Wild Horse Mountain		node	358778892	natural	peak	-121.7888890	41.6704319	18	0.3			Siskiyou County	California	United States of America	us	Wild Horse Mountain, Siskiyou County, California, United States of America	-121.7888890	41.6704319	-121.7888890	41.6704319			
Stud Hill		node	358776679	natural	peak	-121.5822164	41.4912699	18	0.3			Siskiyou County	California	United States of America	us	Stud Hill, Siskiyou County, California, United States of America	-121.5822164	41.4912699	-121.5822164	41.4912699			
Snag Hill		node	358776155	natural	peak	-121.6461069	41.4734917	18	0.3			Siskiyou County	California	United States of America	us	Snag Hill, Siskiyou County, California, United States of America	-121.6461069	41.4734917	-121.6461069	41.4734917			
Sharp Mountain		node	358774994	natural	peak	-121.7699994	41.7034871	18	0.3			Siskiyou County	California	United States of America	us	Sharp Mountain, Siskiyou County, California, United States of America	-121.7699994	41.7034871	-121.7699994	41.7034871			
Semi Crater		node	358774924	natural	volcano	-121.5377717	41.7487687	18	0.3			Siskiyou County	California	United States of America	us	Semi Crater, Siskiyou County, California, United States of America	-121.5377717	41.7487687	-121.5377717	41.7487687			
Round Mountain		node	358773901	natural	peak	-121.4627667	41.4276608	18	0.3			Siskiyou County	California	United States of America	us	Round Mountain, Siskiyou County, California, United States of America	-121.4627667	41.4276608	-121.4627667	41.4276608			
Powder Hill		node	358773023	natural	peak	-121.6266621	41.4762697	18	0.3			Siskiyou County	California	United States of America	us	Powder Hill, Siskiyou County, California, United States of America	-121.6266621	41.4762697	-121.6266621	41.4762697			
Papoose Hill		node	358772373	natural	peak	-121.6405516	41.4987693	18	0.3			Siskiyou County	California	United States of America	us	Papoose Hill, Siskiyou County, California, United States of America	-121.6405516	41.4987693	-121.6405516	41.4987693			
Modoc Crater		node	358770946	natural	volcano	-121.5529819	41.7159763	18	0.3			Siskiyou County	California	United States of America	us	Modoc Crater, Siskiyou County, California, United States of America	-121.5529819	41.7159763	-121.5529819	41.7159763			
Indian Butte		node	358768003	natural	peak	-121.5077705	41.6373810	18	0.3			Siskiyou County	California	United States of America	us	Indian Butte, Siskiyou County, California, United States of America	-121.5077705	41.6373810	-121.5077705	41.6373810			
Fourmile Hill		node	358766079	natural	peak	-121.6166622	41.6426571	18	0.3			Siskiyou County	California	United States of America	us	Fourmile Hill, Siskiyou County, California, United States of America	-121.6166622	41.6426571	-121.6166622	41.6426571			
Cougar Butte		node	358764184	natural	peak	-121.4719358	41.6534924	18	0.3			Siskiyou County	California	United States of America	us	Cougar Butte, Siskiyou County, California, United States of America	-121.4719358	41.6534924	-121.4719358	41.6534924			
Cinder Butte		node	358763610	natural	volcano	-121.6014368	41.6853651	18	0.3			Siskiyou County	California	United States of America	us	Cinder Butte, Siskiyou County, California, United States of America	-121.6014368	41.6853651	-121.6014368	41.6853651			
Buck Butte		node	358762587	natural	peak	-121.4697121	41.4740492	18	0.3			Siskiyou County	California	United States of America	us	Buck Butte, Siskiyou County, California, United States of America	-121.4697121	41.4740492	-121.4697121	41.4740492			
Border Mountain		node	358762287	natural	peak	-121.4680456	41.4912713	18	0.3			Siskiyou County	California	United States of America	us	Border Mountain, Siskiyou County, California, United States of America	-121.4680456	41.4912713	-121.4680456	41.4912713			
Black Mountain		node	358762079	natural	peak	-121.4799909	41.5296041	18	0.3			Siskiyou County	California	United States of America	us	Black Mountain, Siskiyou County, California, United States of America	-121.4799909	41.5296041	-121.4799909	41.5296041			
Boundary Butte		node	59949970	natural	peak	-121.4964743	41.6910599	18	0.3			Siskiyou County	California	United States of America	us	Boundary Butte, Siskiyou County, California, United States of America	-121.4964743	41.6910599	-121.4964743	41.6910599			
Bat Butte		node	59948749	natural	volcano	-121.5536924	41.7375618	18	0.3			Siskiyou County	California	United States of America	us	Bat Butte, Siskiyou County, California, United States of America	-121.5536924	41.7375618	-121.5536924	41.7375618			
Hardin Butte		node	59949181	natural	volcano	-121.5253016	41.7668967	18	0.3			Siskiyou County	California	United States of America	us	Hardin Butte, Siskiyou County, California, United States of America	-121.5253016	41.7668967	-121.5253016	41.7668967			
Eagle Nest Butte		node	59950609	natural	volcano	-121.5674583	41.7034664	18	0.3			Siskiyou County	California	United States of America	us	Eagle Nest Butte, Siskiyou County, California, United States of America	-121.5674583	41.7034664	-121.5674583	41.7034664			
Island Butte		node	59950608	natural	volcano	-121.5916739	41.6955884	18	0.3			Siskiyou County	California	United States of America	us	Island Butte, Siskiyou County, California, United States of America	-121.5916739	41.6955884	-121.5916739	41.6955884			
Whitney Butte		node	59950603	natural	volcano	-121.5921929	41.7389164	18	0.3			Siskiyou County	California	United States of America	us	Whitney Butte, Siskiyou County, California, United States of America	-121.5921929	41.7389164	-121.5921929	41.7389164			
Mammoth Crater		node	59949980	natural	volcano	-121.5480316	41.6924275	18	0.3			Siskiyou County	California	United States of America	us	Mammoth Crater, Siskiyou County, California, United States of America	-121.5480316	41.6924275	-121.5480316	41.6924275			
Crescent Butte		node	59949969	natural	volcano	-121.5155734	41.7178656	18	0.3			Siskiyou County	California	United States of America	us	Crescent Butte, Siskiyou County, California, United States of America	-121.5155734	41.7178656	-121.5155734	41.7178656			
Three Sisters		node	59949973	natural	volcano	-121.4703475	41.7436342	18	0.3			Siskiyou County	California	United States of America	us	Three Sisters, Siskiyou County, California, United States of America	-121.4703475	41.7436342	-121.4703475	41.7436342			
Hippo Butte		node	59949966	natural	volcano	-121.5315095	41.7142786	18	0.3			Siskiyou County	California	United States of America	us	Hippo Butte, Siskiyou County, California, United States of America	-121.5315095	41.7142786	-121.5315095	41.7142786			
Caldwell Butte		node	59949971	natural	volcano	-121.4808009	41.6983412	18	0.3			Siskiyou County	California	United States of America	us	Caldwell Butte, Siskiyou County, California, United States of America	-121.4808009	41.6983412	-121.4808009	41.6983412			
Caldwell Minor		node	59949972	natural	volcano	-121.4831293	41.7059543	18	0.3			Siskiyou County	California	United States of America	us	Caldwell Minor, Siskiyou County, California, United States of America	-121.4831293	41.7059543	-121.4831293	41.7059543			
Red Butte		node	59949967	natural	volcano	-121.5296982	41.7023759	18	0.3			Siskiyou County	California	United States of America	us	Red Butte, Siskiyou County, California, United States of America	-121.5296982	41.7023759	-121.5296982	41.7023759			
Bearpaw Butte		node	59949968	natural	volcano	-121.5530893	41.7229322	18	0.3			Siskiyou County	California	United States of America	us	Bearpaw Butte, Siskiyou County, California, United States of America	-121.5530893	41.7229322	-121.5530893	41.7229322			
Widow Mountain		node	358800615	natural	peak	-121.2969231	41.1596088	18	0.3			Lassen County	California	United States of America	us	Widow Mountain, Lassen County, California, United States of America	-121.2969231	41.1596088	-121.2969231	41.1596088			
Taylor Knob		node	358800309	natural	peak	-121.2735871	41.0323870	18	0.3			Lassen County	California	United States of America	us	Taylor Knob, Lassen County, California, United States of America	-121.2735871	41.0323870	-121.2735871	41.0323870			
Little Baldy Mountain		node	358798534	natural	peak	-121.3149793	41.1559976	18	0.3			Lassen County	California	United States of America	us	Little Baldy Mountain, Lassen County, California, United States of America	-121.3149793	41.1559976	-121.3149793	41.1559976			
Ricketts Hill		node	358773542	natural	peak	-121.1733066	41.0712771	18	0.3			Lassen County	California	United States of America	us	Ricketts Hill, Lassen County, California, United States of America	-121.1733066	41.0712771	-121.1733066	41.0712771			
Dixon Hill		node	358764788	natural	peak	-121.2446973	41.0301651	18	0.3			Lassen County	California	United States of America	us	Dixon Hill, Lassen County, California, United States of America	-121.2446973	41.0301651	-121.2446973	41.0301651			
Fall River Mills		relation	7278375	boundary	administrative	-121.4411780	41.0045561	30	0.279165948943713			Shasta County	California	United States of America	us	Fall River Mills, Shasta County, California, United States of America	-121.4567351	40.9796199	-121.4195252	41.0297199	Q1929479	en:Fall River Mills, California	
Dorris		node	147131753	place	village	-121.9180493	41.9668953	19	0.275		Dorris	Siskiyou County	California	United States of America	us	Dorris, Dorris, Siskiyou County, California, United States of America	-121.9180493	41.9668953	-121.9180493	41.9668953	Q953781		
Tulelake		node	147132714	place	village	-121.4774920	41.9559890	19	0.275		Tulelake	Siskiyou County	California	United States of America	us	Tulelake, Tulelake, Siskiyou County, California, United States of America	-121.4774920	41.9559890	-121.4774920	41.9559890	Q2453325		
Pumpkin Center		node	147132208	place	hamlet	-121.1066382	41.1098891	19	0.275			Lassen County	California	United States of America	us	Pumpkin Center, Lassen County, California, United States of America	-121.1066382	41.1098891	-121.1066382	41.1098891			
Nubieber		node	147132809	place	hamlet	-121.1830295	41.0957214	19	0.275			Lassen County	California	United States of America	us	Nubieber, Lassen County, California, United States of America	-121.1830295	41.0957214	-121.1830295	41.0957214			
Bieber		node	147133908	place	hamlet	-121.1441396	41.1212775	19	0.275			Lassen County	California	United States of America	us	Bieber, Lassen County, California, United States of America	-121.1441396	41.1212775	-121.1441396	41.1212775			
Leonard		node	147131892	place	hamlet	-121.0308025	41.1346124	19	0.275			Lassen County	California	United States of America	us	Leonard, Lassen County, California, United States of America	-121.0308025	41.1346124	-121.0308025	41.1346124			
Hot Springs		node	147133577	place	hamlet	-121.0385806	41.1462789	19	0.275			Lassen County	California	United States of America	us	Hot Springs, Lassen County, California, United States of America	-121.0385806	41.1462789	-121.0385806	41.1462789			
Pondosa		node	147131854	place	hamlet	-121.6888809	41.1993272	19	0.275			Siskiyou County	California	United States of America	us	Pondosa, Siskiyou County, California, United States of America	-121.6888809	41.1993272	-121.6888809	41.1993272			
Chalk Bank Landing		node	147132941	place	hamlet	-121.6427731	41.9120973	19	0.275			Siskiyou County	California	United States of America	us	Chalk Bank Landing, Siskiyou County, California, United States of America	-121.6427731	41.9120973	-121.6427731	41.9120973			
Laird Landing		node	147133482	place	hamlet	-121.7241641	41.8729297	19	0.275			Siskiyou County	California	United States of America	us	Laird Landing, Siskiyou County, California, United States of America	-121.7241641	41.8729297	-121.7241641	41.8729297			
Fleener Place		node	147133605	place	hamlet	-121.5905501	41.8476549	19	0.275			Siskiyou County	California	United States of America	us	Fleener Place, Siskiyou County, California, United States of America	-121.5905501	41.8476549	-121.5905501	41.8476549			
Canby Cross		node	147134046	place	hamlet	-121.5436047	41.8187674	19	0.275			Siskiyou County	California	United States of America	us	Canby Cross, Siskiyou County, California, United States of America	-121.5436047	41.8187674	-121.5436047	41.8187674			
Slagger		node	147132468	place	hamlet	-121.7230509	41.3257151	19	0.275			Siskiyou County	California	United States of America	us	Slagger, Siskiyou County, California, United States of America	-121.7230509	41.3257151	-121.7230509	41.3257151			
Lakin		node	147133768	place	hamlet	-121.5622136	41.3782158	19	0.275			Siskiyou County	California	United States of America	us	Lakin, Siskiyou County, California, United States of America	-121.5622136	41.3782158	-121.5622136	41.3782158			
Hambone		node	147134355	place	hamlet	-121.6977726	41.3348819	19	0.275			Siskiyou County	California	United States of America	us	Hambone, Siskiyou County, California, United States of America	-121.6977726	41.3348819	-121.6977726	41.3348819			
Bartle		node	147131551	place	hamlet	-121.8211073	41.2576600	19	0.275			Siskiyou County	California	United States of America	us	Bartle, Siskiyou County, California, United States of America	-121.8211073	41.2576600	-121.8211073	41.2576600			
Kinyon		node	147132014	place	hamlet	-121.8941646	41.2712705	19	0.275			Siskiyou County	California	United States of America	us	Kinyon, Siskiyou County, California, United States of America	-121.8941646	41.2712705	-121.8941646	41.2712705			
Swobe		node	147134327	place	hamlet	-121.9144429	41.2768259	19	0.275			Siskiyou County	California	United States of America	us	Swobe, Siskiyou County, California, United States of America	-121.9144429	41.2768259	-121.9144429	41.2768259			
Curtis		node	147134110	place	hamlet	-121.7666607	41.2004378	19	0.275			Siskiyou County	California	United States of America	us	Curtis, Siskiyou County, California, United States of America	-121.7666607	41.2004378	-121.7666607	41.2004378			
Hatfield		node	147132187	place	hamlet	-121.5194367	41.9979317	19	0.275			Siskiyou County	California	United States of America	us	Hatfield, Siskiyou County, California, United States of America	-121.5194367	41.9979317	-121.5194367	41.9979317			
Kegg		node	147131452	place	hamlet	-121.9869502	41.6893180	19	0.275			Siskiyou County	California	United States of America	us	Kegg, Siskiyou County, California, United States of America	-121.9869502	41.6893180	-121.9869502	41.6893180			
Somerset		node	147131732	place	hamlet	-121.9911180	41.8523707	19	0.275			Siskiyou County	California	United States of America	us	Somerset, Siskiyou County, California, United States of America	-121.9911180	41.8523707	-121.9911180	41.8523707			
Jerome		node	147133930	place	hamlet	-121.9999837	41.7315529	19	0.275			Siskiyou County	California	United States of America	us	Jerome, Siskiyou County, California, United States of America	-121.9999837	41.7315529	-121.9999837	41.7315529			
Tennant		node	147133948	place	hamlet	-121.9133367	41.5837651	19	0.275			Siskiyou County	California	United States of America	us	Tennant, Siskiyou County, California, United States of America	-121.9133367	41.5837651	-121.9133367	41.5837651			
Bray		node	147134170	place	hamlet	-121.9679953	41.6449073	19	0.275			Siskiyou County	California	United States of America	us	Bray, Siskiyou County, California, United States of America	-121.9679953	41.6449073	-121.9679953	41.6449073			
Day		node	147133410	place	hamlet	-121.3744266	41.2115526	19	0.275			Modoc County	California	United States of America	us	Day, Modoc County, California, United States of America	-121.3744266	41.2115526	-121.3744266	41.2115526			
Lookout		node	147134241	place	hamlet	-121.1552524	41.2079441	19	0.275			Modoc County	California	United States of America	us	Lookout, Modoc County, California, United States of America	-121.1552524	41.2079441	-121.1552524	41.2079441			
Staley		node	147131358	place	hamlet	-121.3808230	41.8882131	19	0.275			Modoc County	California	United States of America	us	Staley, Modoc County, California, United States of America	-121.3808230	41.8882131	-121.3808230	41.8882131			
Perez		node	147131490	place	hamlet	-121.2541504	41.6762729	19	0.275			Modoc County	California	United States of America	us	Perez, Modoc County, California, United States of America	-121.2541504	41.6762729	-121.2541504	41.6762729			
Copic		node	147131624	place	hamlet	-121.3419329	41.8651584	19	0.275			Modoc County	California	United States of America	us	Copic, Modoc County, California, United States of America	-121.3419329	41.8651584	-121.3419329	41.8651584			
Boles		node	147131687	place	hamlet	-121.0591403	41.5390541	19	0.275			Modoc County	California	United States of America	us	Boles, Modoc County, California, United States of America	-121.0591403	41.5390541	-121.0591403	41.5390541			
Meares		node	147131778	place	hamlet	-121.1988694	41.6207183	19	0.275			Modoc County	California	United States of America	us	Meares, Modoc County, California, United States of America	-121.1988694	41.6207183	-121.1988694	41.6207183			
Dalton		node	147131919	place	hamlet	-121.4194350	41.9362673	19	0.275			Modoc County	California	United States of America	us	Dalton, Modoc County, California, United States of America	-121.4194350	41.9362673	-121.4194350	41.9362673			
Tionesta		node	147131960	place	hamlet	-121.2931652	41.6487907	19	0.275			Modoc County	California	United States of America	us	Tionesta, Modoc County, California, United States of America	-121.2931652	41.6487907	-121.2931652	41.6487907			
