name	alternative_names	osm_type	osm_id	class	type	lon	lat	place_rank	importance	street	city	county	state	country	country_code	display_name	west	south	east	north	wikidata	wikipedia	housenumbers
Santa Barbara County	Santa Barbara	relation	396510	boundary	administrative	-120.0640266	34.7202565	12	0.48226982462001			Santa Barbara County	California	United States of America	us	Santa Barbara County, California, United States of America	-120.7343821	33.4083677	-118.9633999	35.1146650	Q108106	en:Santa Barbara County, California	
Santa Maria		way	106716910	place	city	-120.4537714	34.9336835	16	0.458160518054125		Santa Maria		California	United States of America	us	Santa Maria, California, United States of America	-120.5084086	34.8755275	-120.3543359	34.9892383	Q643953	en:Santa Maria, California	
Solvang	سولفانغ، سانتا باربارا، كاليفورنيا	way	33113473	place	city	-120.1441616	34.5848069	16	0.364150972568092		Solvang	Santa Barbara County	California	United States of America	us	Solvang, Santa Barbara County, California, United States of America	-120.1549110	34.5588880	-120.1199210	34.6107669	Q822559	en:Solvang, California	
Santa Ynez		way	33180899	boundary	administrative	-120.1046775	34.6086369	30	0.351497327609697			Santa Barbara County	California	United States of America	us	Santa Ynez, Santa Barbara County, California, United States of America	-120.1367230	34.5813320	-120.0551170	34.6358210	Q1787293	en:Santa Ynez, California	
Santa Maria		node	150977729	place	city	-120.4358577	34.9531295	16	0.35			Santa Barbara County	California	United States of America	us	Santa Maria, Santa Barbara County, California, United States of America	-120.4358577	34.9531295	-120.4358577	34.9531295	Q643953		
Lompoc		node	150960972	place	city	-120.4579410	34.6391501	16	0.35			Santa Barbara County	California	United States of America	us	Lompoc, Santa Barbara County, California, United States of America	-120.4579410	34.6391501	-120.4579410	34.6391501	Q852704		
Zaca Lake		way	149956503	natural	water	-120.0396815	34.7777214	16	0.35			Santa Barbara County	California	United States of America	us	Zaca Lake, Santa Barbara County, California, United States of America	-120.0415672	34.7762709	-120.0377655	34.7791068			
Buellton	بويلتون، سانتا باربارا، كاليفورنيا	way	33113769	place	city	-120.1986512	34.6175475	16	0.32976304828016		Buellton	Santa Barbara County	California	United States of America	us	Buellton, Santa Barbara County, California, United States of America	-120.2107438	34.6062348	-120.1763933	34.6290509	Q999905	en:Buellton, California	
Orcutt		node	3816337556	place	town	-120.4366904	34.8650716	18	0.32876858236251			Santa Barbara County	California	United States of America	us	Orcutt, Santa Barbara County, California, United States of America	-120.4366904	34.8650716	-120.4366904	34.8650716	Q1636815	en:Orcutt, California	
Sisquoc River		way	402929851	waterway	river	-120.2923320	34.8796275	17	0.325			Santa Barbara County	California	United States of America	us	Sisquoc River, Santa Barbara County, California, United States of America	-120.3120357	34.8627860	-120.2654324	34.9038253			
Santa Maria River		way	401465458	waterway	river	-120.4895548	34.9857852	17	0.325			Santa Barbara County	California	United States of America	us	Santa Maria River, Santa Barbara County, California, United States of America	-120.6508499	34.9038253	-120.3120357	34.9955592			
Mission Hills		way	33180507	boundary	administrative	-120.4390176	34.6875840	30	0.305679995887148			Santa Barbara County	California	United States of America	us	Mission Hills, Santa Barbara County, California, United States of America	-120.4559033	34.6750270	-120.4255920	34.7003589	Q1918669	en:Mission Hills, California	
Lompoc		way	332301024	place	town	-120.4956813	34.5861230	18	0.3		Lompoc	Santa Barbara County	California	United States of America	us	Lompoc, Santa Barbara County, California, United States of America	-120.4987312	34.5832713	-120.4919656	34.5888095			
Lompoc		way	332572968	place	town	-120.4621115	34.6566084	18	0.3		Lompoc	Santa Barbara County	California	United States of America	us	Lompoc, Santa Barbara County, California, United States of America	-120.5190324	34.6208684	-120.4322033	34.6919710			
Lompoc		way	332572970	place	town	-120.4435371	34.6674945	18	0.3		Lompoc	Santa Barbara County	California	United States of America	us	Lompoc, Santa Barbara County, California, United States of America	-120.4442919	34.6666457	-120.4426432	34.6678771			
Grass Mountain		node	4158652020	natural	peak	-120.0416931	34.7627547	18	0.3			Santa Barbara County	California	United States of America	us	Grass Mountain, Santa Barbara County, California, United States of America	-120.0416931	34.7627547	-120.0416931	34.7627547			
Lookout Mountain		node	358808272	natural	peak	-120.0662573	34.7785938	18	0.3			Santa Barbara County	California	United States of America	us	Lookout Mountain, Santa Barbara County, California, United States of America	-120.0662573	34.7785938	-120.0662573	34.7785938			
Chalk Hill		node	358807917	natural	peak	-120.1462083	34.6140902	18	0.3			Santa Barbara County	California	United States of America	us	Chalk Hill, Santa Barbara County, California, United States of America	-120.1462083	34.6140902	-120.1462083	34.6140902			
Manzanita Mountain		node	358801680	natural	peak	-120.0801461	34.8938687	18	0.3			Santa Barbara County	California	United States of America	us	Manzanita Mountain, Santa Barbara County, California, United States of America	-120.0801461	34.8938687	-120.0801461	34.8938687			
Bone Mountain		node	358800947	natural	peak	-120.1318155	34.8630360	18	0.3			Santa Barbara County	California	United States of America	us	Bone Mountain, Santa Barbara County, California, United States of America	-120.1318155	34.8630360	-120.1318155	34.8630360			
Zaca Peak		node	358794976	natural	peak	-120.0240332	34.7677611	18	0.3			Santa Barbara County	California	United States of America	us	Zaca Peak, Santa Barbara County, California, United States of America	-120.0240332	34.7677611	-120.0240332	34.7677611			
Tepusquet Peak		node	358793306	natural	peak	-120.1862626	34.9102569	18	0.3			Santa Barbara County	California	United States of America	us	Tepusquet Peak, Santa Barbara County, California, United States of America	-120.1862626	34.9102569	-120.1862626	34.9102569			
Santa Rosa Hills		node	358792275	natural	peak	-120.2843207	34.5666529	18	0.3			Santa Barbara County	California	United States of America	us	Santa Rosa Hills, Santa Barbara County, California, United States of America	-120.2843207	34.5666529	-120.2843207	34.5666529			
Redrock Mountain		node	358791055	natural	peak	-120.2670991	34.6910943	18	0.3			Santa Barbara County	California	United States of America	us	Redrock Mountain, Santa Barbara County, California, United States of America	-120.2670991	34.6910943	-120.2670991	34.6910943			
Gaviota Peak		node	358784678	natural	peak	-120.1987606	34.5019330	18	0.3			Santa Barbara County	California	United States of America	us	Gaviota Peak, Santa Barbara County, California, United States of America	-120.1987606	34.5019330	-120.1987606	34.5019330			
Bald Mountain		node	358780188	natural	peak	-120.0909788	34.5313778	18	0.3			Santa Barbara County	California	United States of America	us	Bald Mountain, Santa Barbara County, California, United States of America	-120.0909788	34.5313778	-120.0909788	34.5313778			
Newlove Hill		node	358808390	natural	peak	-120.4043285	34.8344245	18	0.3			Santa Barbara County	California	United States of America	us	Newlove Hill, Santa Barbara County, California, United States of America	-120.4043285	34.8344245	-120.4043285	34.8344245			
La Tinta Hill		node	358808218	natural	peak	-120.4868310	34.5808174	18	0.3			Santa Barbara County	California	United States of America	us	La Tinta Hill, Santa Barbara County, California, United States of America	-120.4868310	34.5808174	-120.4868310	34.5808174			
Camelback Hill		node	358807881	natural	peak	-120.3898833	34.8152582	18	0.3			Santa Barbara County	California	United States of America	us	Camelback Hill, Santa Barbara County, California, United States of America	-120.3898833	34.8152582	-120.3898833	34.8152582			
Mount Solomon		node	358792787	natural	peak	-120.3832486	34.8347486	18	0.3			Santa Barbara County	California	United States of America	us	Mount Solomon, Santa Barbara County, California, United States of America	-120.3832486	34.8347486	-120.3832486	34.8347486			
Los Alamos		way	33180458	boundary	administrative	-120.2659105	34.7379311	30	0.294144509293859			Santa Barbara County	California	United States of America	us	Los Alamos, Santa Barbara County, California, United States of America	-120.2972625	34.7175382	-120.2533944	34.7583812	Q1915491	en:Los Alamos, California	
Pacer		node	150946637	place	hamlet	-120.4898883	34.9352561	19	0.275		Santa Maria		California	United States of America	us	Pacer, Santa Maria, California, United States of America	-120.4898883	34.9352561	-120.4898883	34.9352561			
North Santa Maria		node	150974514	place	hamlet	-120.4446085	34.9569224	19	0.275		Santa Maria		California	United States of America	us	North Santa Maria, Santa Maria, California, United States of America	-120.4446085	34.9569224	-120.4446085	34.9569224			
Solvang		node	2657959072	place	village	-120.1390894	34.5958571	19	0.275		Solvang	Santa Barbara County	California	United States of America	us	Solvang, Solvang, Santa Barbara County, California, United States of America	-120.1390894	34.5958571	-120.1390894	34.5958571			
Buellton		node	150933355	place	village	-120.1936693	34.6134726	19	0.275		Buellton	Santa Barbara County	California	United States of America	us	Buellton, Buellton, Santa Barbara County, California, United States of America	-120.1936693	34.6134726	-120.1936693	34.6134726			
Rancho San Carlos de Jonata		node	4689179970	place	hamlet	-120.1416006	34.6478306	19	0.275			Santa Barbara County	California	United States of America	us	Rancho San Carlos de Jonata, Santa Barbara County, California, United States of America	-120.1416006	34.6478306	-120.1416006	34.6478306			
Midland School		node	4689179966	place	hamlet	-120.0875653	34.7315637	19	0.275			Santa Barbara County	California	United States of America	us	Midland School, Santa Barbara County, California, United States of America	-120.0875653	34.7315637	-120.0875653	34.7315637			
Figueroa Station		node	4689179967	place	hamlet	-120.0070120	34.7351555	19	0.275			Santa Barbara County	California	United States of America	us	Figueroa Station, Santa Barbara County, California, United States of America	-120.0070120	34.7351555	-120.0070120	34.7351555			
Rancho Santa Ynez		node	4689179971	place	hamlet	-120.1338725	34.6342870	19	0.275			Santa Barbara County	California	United States of America	us	Rancho Santa Ynez, Santa Barbara County, California, United States of America	-120.1338725	34.6342870	-120.1338725	34.6342870			
Mesa Oaks		node	150937828	place	hamlet	-120.4415517	34.6808161	19	0.275			Santa Barbara County	California	United States of America	us	Mesa Oaks, Santa Barbara County, California, United States of America	-120.4415517	34.6808161	-120.4415517	34.6808161			
Bicknell		node	150938809	place	hamlet	-120.3932167	34.8166472	19	0.275			Santa Barbara County	California	United States of America	us	Bicknell, Santa Barbara County, California, United States of America	-120.3932167	34.8166472	-120.3932167	34.8166472			
Mission Hills		node	150950186	place	hamlet	-120.4368291	34.6860938	19	0.275			Santa Barbara County	California	United States of America	us	Mission Hills, Santa Barbara County, California, United States of America	-120.4368291	34.6860938	-120.4368291	34.6860938			
Rex		node	150954557	place	hamlet	-120.3771052	34.9452559	19	0.275			Santa Barbara County	California	United States of America	us	Rex, Santa Barbara County, California, United States of America	-120.3771052	34.9452559	-120.3771052	34.9452559			
Rosemary		node	150964895	place	hamlet	-120.3946060	34.9455338	19	0.275			Santa Barbara County	California	United States of America	us	Rosemary, Santa Barbara County, California, United States of America	-120.3946060	34.9455338	-120.3946060	34.9455338			
Mission Hills		node	150971483	place	hamlet	-120.4343291	34.6930382	19	0.275			Santa Barbara County	California	United States of America	us	Mission Hills, Santa Barbara County, California, United States of America	-120.4343291	34.6930382	-120.4343291	34.6930382			
Vandenberg Village		node	150973307	place	hamlet	-120.4676641	34.7083154	19	0.275			Santa Barbara County	California	United States of America	us	Vandenberg Village, Santa Barbara County, California, United States of America	-120.4676641	34.7083154	-120.4676641	34.7083154			
Rancho Los Olivos		node	4689179972	place	hamlet	-120.1119497	34.6457169	19	0.275			Santa Barbara County	California	United States of America	us	Rancho Los Olivos, Santa Barbara County, California, United States of America	-120.1119497	34.6457169	-120.1119497	34.6457169			
Battles		node	4689199658	place	hamlet	-120.4008295	34.9307308	19	0.275			Santa Barbara County	California	United States of America	us	Battles, Santa Barbara County, California, United States of America	-120.4008295	34.9307308	-120.4008295	34.9307308			
Garey		node	150934182	place	hamlet	-120.3149009	34.8887584	19	0.275			Santa Barbara County	California	United States of America	us	Garey, Santa Barbara County, California, United States of America	-120.3149009	34.8887584	-120.3149009	34.8887584			
Santa Ynez		node	150936678	place	hamlet	-120.0798680	34.6144313	19	0.275			Santa Barbara County	California	United States of America	us	Santa Ynez, Santa Barbara County, California, United States of America	-120.0798680	34.6144313	-120.0798680	34.6144313			
Jonata Park		node	150940882	place	hamlet	-120.1843173	34.6510960	19	0.275			Santa Barbara County	California	United States of America	us	Jonata Park, Santa Barbara County, California, United States of America	-120.1843173	34.6510960	-120.1843173	34.6510960			
Los Olivos		node	150941078	place	village	-120.1148470	34.6677646	19	0.275			Santa Barbara County	California	United States of America	us	Los Olivos, Santa Barbara County, California, United States of America	-120.1148470	34.6677646	-120.1148470	34.6677646			
Las Cruces		node	150944948	place	hamlet	-120.2290397	34.5080438	19	0.275			Santa Barbara County	California	United States of America	us	Las Cruces, Santa Barbara County, California, United States of America	-120.2290397	34.5080438	-120.2290397	34.5080438			
Los Alamos		node	150951497	place	village	-120.2784328	34.7443202	19	0.275			Santa Barbara County	California	United States of America	us	Los Alamos, Santa Barbara County, California, United States of America	-120.2784328	34.7443202	-120.2784328	34.7443202			
Ballard		node	150959724	place	hamlet	-120.1132029	34.6358193	19	0.275			Santa Barbara County	California	United States of America	us	Ballard, Santa Barbara County, California, United States of America	-120.1132029	34.6358193	-120.1132029	34.6358193			
Sisquoc		node	150981493	place	hamlet	-120.2915456	34.8647019	19	0.275			Santa Barbara County	California	United States of America	us	Sisquoc, Santa Barbara County, California, United States of America	-120.2915456	34.8647019	-120.2915456	34.8647019			
Barham Ranch		node	4689179963	place	hamlet	-120.2205671	34.7279102	19	0.275			Santa Barbara County	California	United States of America	us	Barham Ranch, Santa Barbara County, California, United States of America	-120.2205671	34.7279102	-120.2205671	34.7279102			
Rancho Corral de Quati		node	4689179964	place	hamlet	-120.1282149	34.7236817	19	0.275			Santa Barbara County	California	United States of America	us	Rancho Corral de Quati, Santa Barbara County, California, United States of America	-120.1282149	34.7236817	-120.1282149	34.7236817			
Rancho Los Potreros		node	4689179965	place	hamlet	-120.1105858	34.7121373	19	0.275			Santa Barbara County	California	United States of America	us	Rancho Los Potreros, Santa Barbara County, California, United States of America	-120.1105858	34.7121373	-120.1105858	34.7121373			
Vandenberg Village		way	33181255	boundary	administrative	-120.4606835	34.7116502	30	0.263924667233973			Santa Barbara County	California	United States of America	us	Vandenberg Village, Santa Barbara County, California, United States of America	-120.4873750	34.6887751	-120.4334531	34.7338461	Q2793707	en:Vandenberg Village, California	
Midco		node	150962810	multiple	locality	-120.4636750	34.9363704	20	0.25		Santa Maria		California	United States of America	us	Midco, Santa Maria, California, United States of America	-120.4636750	34.9363704	-120.4636750	34.9363704			
Casa Grande Mobile Home Park		way	119275379	highway	residential	-120.4420377	34.9785969	22	0.2		Santa Maria		California	United States of America	us	Casa Grande Mobile Home Park, Santa Maria, California, United States of America	-120.4443267	34.9751179	-120.4398806	34.9821420			
El Capitan Village Mobile Home Park		way	170988647	highway	residential	-120.4386210	34.9274458	22	0.2		Santa Maria		California	United States of America	us	El Capitan Village Mobile Home Park, Santa Maria, California, United States of America	-120.4400342	34.9263660	-120.4372091	34.9285826			
Hidden Pines Estates		way	310550779	highway	residential	-120.4414281	34.9869867	22	0.2		Santa Maria		California	United States of America	us	Hidden Pines Estates, Santa Maria, California, United States of America	-120.4442520	34.9859439	-120.4380654	34.9887168			
Lincoln Oaks Apartments		way	310553466	highway	residential	-120.4328482	34.9350533	22	0.2		Santa Maria		California	United States of America	us	Lincoln Oaks Apartments, Santa Maria, California, United States of America	-120.4339219	34.9341642	-120.4317644	34.9359405			
Arbor Ridge Apartments		way	310553769	highway	residential	-120.4326353	34.9322304	22	0.2		Santa Maria		California	United States of America	us	Arbor Ridge Apartments, Santa Maria, California, United States of America	-120.4341949	34.9315232	-120.4317947	34.9339581			
Trailerancho Mobile Home Park		way	310558103	highway	residential	-120.4520415	34.9176091	22	0.2		Santa Maria		California	United States of America	us	Trailerancho Mobile Home Park, Santa Maria, California, United States of America	-120.4532866	34.9168818	-120.4507963	34.9183364			
Airport Mobile Home Park		way	118266938	highway	residential	-120.4534731	34.8881847	22	0.2		Santa Maria		California	United States of America	us	Airport Mobile Home Park, Santa Maria, California, United States of America	-120.4543197	34.8869283	-120.4526263	34.8894412			
Rancho Buena Vista Mobile Home Park		way	44580956	highway	residential	-120.4466294	34.9812461	22	0.2		Santa Maria		California	United States of America	us	Rancho Buena Vista Mobile Home Park, Santa Maria, California, United States of America	-120.4486768	34.9786990	-120.4444205	34.9821997			
La Maria Mobile Home Park		way	170987081	highway	residential	-120.4421320	34.9295580	22	0.2		Santa Maria		California	United States of America	us	La Maria Mobile Home Park, Santa Maria, California, United States of America	-120.4435792	34.9286080	-120.4406798	34.9313634			
Toby Villas		way	383227515	highway	residential	-120.4292772	34.9182473	22	0.2		Santa Maria		California	United States of America	us	Toby Villas, Santa Maria, California, United States of America	-120.4313292	34.9165838	-120.4272158	34.9201880			
Santa Maria Gun Club		way	133586990	highway	residential	-120.3765410	34.9026608	22	0.2		Santa Maria Gun Club	Santa Barbara County	California	United States of America	us	Santa Maria Gun Club, Santa Barbara County, California, United States of America	-120.3787002	34.9015870	-120.3743503	34.9035155			
Cimerron Estates		way	310529900	highway	residential	-120.4029712	34.8641242	22	0.2		Cimerron Estates	Santa Barbara County	California	United States of America	us	Cimerron Estates, Santa Barbara County, California, United States of America	-120.4043956	34.8632330	-120.4011984	34.8650992			
Cobblestone Creek		way	310534620	highway	residential	-120.4026930	34.8603944	22	0.2		Cobblestone Creek	Santa Barbara County	California	United States of America	us	Cobblestone Creek, Santa Barbara County, California, United States of America	-120.4041732	34.8594853	-120.4012217	34.8616042			
Jensen's Crossing		way	310533679	highway	residential	-120.4031330	34.8623047	22	0.2		Jensen's Crossing	Santa Barbara County	California	United States of America	us	Jensen's Crossing, Santa Barbara County, California, United States of America	-120.4053015	34.8618503	-120.4011686	34.8632513			
Michael Jackson's Neverland Ranch	Neverland Valley Ranch,Sycamore Valley Ranch	way	37227267	highway	residential	-120.0919708	34.7406232	22	0.2		Michael Jackson's Neverland Ranch	Santa Barbara County	California	United States of America	us	Michael Jackson's Neverland Ranch, Santa Barbara County, California, United States of America	-120.0945881	34.7388387	-120.0898363	34.7426919			
Del Cielo Mobile Estates		way	311018168	highway	residential	-120.4250611	34.9005064	22	0.2		Del Cielo Mobile Estates	Santa Barbara County	California	United States of America	us	Del Cielo Mobile Estates, Santa Barbara County, California, United States of America	-120.4276624	34.8988595	-120.4235084	34.9017283			
Knollwood Meadows		way	315369285	highway	residential	-120.4151754	34.8858943	22	0.2		Knollwood Meadows	Santa Barbara County	California	United States of America	us	Knollwood Meadows, Santa Barbara County, California, United States of America	-120.4165433	34.8850951	-120.4137263	34.8865336			
Mesa Verde		way	133586217	highway	residential	-120.4040802	34.8562956	22	0.2		Mesa Verde	Santa Barbara County	California	United States of America	us	Mesa Verde, Santa Barbara County, California, United States of America	-120.4055592	34.8547929	-120.4025093	34.8578417			
Orcutt Ranch Mobile Estates		way	44580709	highway	residential	-120.4509816	34.8670145	22	0.2		Orcutt Ranch Mobile Estates	Santa Barbara County	California	United States of America	us	Orcutt Ranch Mobile Estates, Santa Barbara County, California, United States of America	-120.4539771	34.8651719	-120.4471280	34.8687706			
Town and Country Mobile Estates		way	106715395	highway	residential	-120.3999251	34.8630104	22	0.2		Town and Country Mobile Estates	Santa Barbara County	California	United States of America	us	Town and Country Mobile Estates, Santa Barbara County, California, United States of America	-120.4010350	34.8618097	-120.3988185	34.8642150			
Sunny Hills Estates Mobile Home Park		way	106995773	highway	residential	-120.3966749	34.8625691	22	0.2		Sunny Hills Estates Mobile Home Park	Santa Barbara County	California	United States of America	us	Sunny Hills Estates Mobile Home Park, Santa Barbara County, California, United States of America	-120.3991910	34.8607943	-120.3931532	34.8633815			
Saint Marie Mobile Home Park		way	119122848	highway	residential	-120.4591046	34.9525107	22	0.2		Saint Marie Mobile Home Park	Santa Barbara County	California	United States of America	us	Saint Marie Mobile Home Park, Santa Barbara County, California, United States of America	-120.4600783	34.9519185	-120.4572381	34.9531877			
Tanglewood		way	133586188	highway	residential	-120.4852851	34.8971914	22	0.2		Tanglewood	Santa Barbara County	California	United States of America	us	Tanglewood, Santa Barbara County, California, United States of America	-120.4904372	34.8938845	-120.4793431	34.9005353			
Riverside Mobile Home Park		way	44580978	highway	residential	-120.4372492	34.9873367	22	0.2		Riverside Mobile Home Park	Santa Barbara County	California	United States of America	us	Riverside Mobile Home Park, Santa Barbara County, California, United States of America	-120.4383236	34.9867177	-120.4353506	34.9879346			
Foothill Estates		node	150941838	place	neighbourhood	-120.4823866	34.6333165	22	0.2		Lompoc	Santa Barbara County	California	United States of America	us	Foothill Estates, Lompoc, Santa Barbara County, California, United States of America	-120.4823866	34.6333165	-120.4823866	34.6333165			
Lompoc Village		node	150941842	place	neighbourhood	-120.4687749	34.6402611	22	0.2		Lompoc	Santa Barbara County	California	United States of America	us	Lompoc Village, Lompoc, Santa Barbara County, California, United States of America	-120.4687749	34.6402611	-120.4687749	34.6402611			
Brighton Place		way	16257436	highway	residential	-120.4444592	34.8721016	22	0.2	Brighton Place		Santa Barbara County	California	United States of America	us	Brighton Place, Santa Barbara County, California, United States of America	-120.4444598	34.8716875	-120.4444587	34.8725157			
Stonebrook Road		way	16257422	highway	residential	-120.4447999	34.8742117	22	0.2	Stonebrook Road		Santa Barbara County	California	United States of America	us	Stonebrook Road, Santa Barbara County, California, United States of America	-120.4448084	34.8734125	-120.4447027	34.8750202			
Billie Court		way	16249994	highway	residential	-120.4437082	34.8690917	22	0.2	Billie Court		Santa Barbara County	California	United States of America	us	Billie Court, Santa Barbara County, California, United States of America	-120.4438486	34.8689633	-120.4435924	34.8692394			
Newcastle Circle		way	16260690	highway	residential	-120.4432008	34.8717545	22	0.2	Newcastle Circle		Santa Barbara County	California	United States of America	us	Newcastle Circle, Santa Barbara County, California, United States of America	-120.4434492	34.8717140	-120.4429551	34.8718103			
Wellington Drive		way	16260747	highway	residential	-120.4405678	34.8772468	22	0.2	Wellington Drive		Santa Barbara County	California	United States of America	us	Wellington Drive, Santa Barbara County, California, United States of America	-120.4430747	34.8770614	-120.4380884	34.8776062			
Old Mill Court		way	16264442	highway	residential	-120.4439273	34.8744887	22	0.2	Old Mill Court		Santa Barbara County	California	United States of America	us	Old Mill Court, Santa Barbara County, California, United States of America	-120.4440340	34.8742914	-120.4438206	34.8746860			
Remington Drive		way	16253346	highway	residential	-120.0933167	34.6223059	22	0.2	Remington Drive		Santa Barbara County	California	United States of America	us	Remington Drive, Santa Barbara County, California, United States of America	-120.0944301	34.6210970	-120.0922721	34.6236760			
Cimarron Drive		way	16253848	highway	residential	-120.0882483	34.6210032	22	0.2	Cimarron Drive		Santa Barbara County	California	United States of America	us	Cimarron Drive, Santa Barbara County, California, United States of America	-120.0923001	34.6187280	-120.0860110	34.6211530			
Jose Delores Circle		way	16254859	highway	residential	-120.0899454	34.6048758	22	0.2	Jose Delores Circle		Santa Barbara County	California	United States of America	us	Jose Delores Circle, Santa Barbara County, California, United States of America	-120.0902935	34.6046865	-120.0896054	34.6050507			
Mountain Ridge Road		way	16260229	highway	residential	-120.0907160	34.6089090	22	0.2	Mountain Ridge Road		Santa Barbara County	California	United States of America	us	Mountain Ridge Road, Santa Barbara County, California, United States of America	-120.0907341	34.6084250	-120.0906980	34.6093930			
Edgehill Road		way	16256787	highway	residential	-120.0665055	34.5958221	22	0.2	Edgehill Road		Santa Barbara County	California	United States of America	us	Edgehill Road, Santa Barbara County, California, United States of America	-120.0683431	34.5951400	-120.0649381	34.5959900			
Pasquala Lane		way	16259858	highway	residential	-120.0906529	34.6038835	22	0.2	Pasquala Lane		Santa Barbara County	California	United States of America	us	Pasquala Lane, Santa Barbara County, California, United States of America	-120.0910630	34.6037230	-120.0902400	34.6040509			
Olive Street		way	16260196	highway	residential	-120.0799681	34.6201430	22	0.2	Olive Street		Santa Barbara County	California	United States of America	us	Olive Street, Santa Barbara County, California, United States of America	-120.0834751	34.6201289	-120.0764610	34.6201670			
Skylark Road		way	16260386	highway	residential	-120.0676714	34.5942707	22	0.2	Skylark Road		Santa Barbara County	California	United States of America	us	Skylark Road, Santa Barbara County, California, United States of America	-120.0689741	34.5934290	-120.0655961	34.5943930			
Willow Circle		way	16261135	highway	residential	-120.0888913	34.6056986	22	0.2	Willow Circle		Santa Barbara County	California	United States of America	us	Willow Circle, Santa Barbara County, California, United States of America	-120.0894988	34.6053490	-120.0883187	34.6059727			
Round Up Road		way	16259879	highway	residential	-120.0625473	34.6615692	22	0.2	Round Up Road		Santa Barbara County	California	United States of America	us	Round Up Road, Santa Barbara County, California, United States of America	-120.0645788	34.6577949	-120.0581960	34.6670725			
Still Meadow Road		way	16257430	highway	residential	-120.1077399	34.6365474	22	0.2	Still Meadow Road		Santa Barbara County	California	United States of America	us	Still Meadow Road, Santa Barbara County, California, United States of America	-120.1083060	34.6292977	-120.1073291	34.6434350			
Exterior Road		way	16258195	highway	residential	-120.1041304	34.6443028	22	0.2	Exterior Road		Santa Barbara County	California	United States of America	us	Exterior Road, Santa Barbara County, California, United States of America	-120.1045001	34.6357210	-120.1037820	34.6528850			
Cottonwood Lane		way	16259757	highway	residential	-120.1154285	34.6333959	22	0.2	Cottonwood Lane		Santa Barbara County	California	United States of America	us	Cottonwood Lane, Santa Barbara County, California, United States of America	-120.1161710	34.6333869	-120.1146860	34.6334050			
School Street		way	16259621	highway	residential	-120.1130485	34.6387147	22	0.2	School Street		Santa Barbara County	California	United States of America	us	School Street, Santa Barbara County, California, United States of America	-120.1145651	34.6385694	-120.1115513	34.6387283			
Lewis Street		way	16264405	highway	residential	-120.1134300	34.6364676	22	0.2	Lewis Street		Santa Barbara County	California	United States of America	us	Lewis Street, Santa Barbara County, California, United States of America	-120.1134556	34.6342289	-120.1134162	34.6387061			
Elk Grove Road		way	16262442	highway	residential	-120.1144422	34.6080283	22	0.2	Elk Grove Road		Santa Barbara County	California	United States of America	us	Elk Grove Road, Santa Barbara County, California, United States of America	-120.1151991	34.6078759	-120.1119990	34.6102389			
Capricorn Court		way	16250011	highway	residential	-120.4733550	34.7132155	22	0.2	Capricorn Court		Santa Barbara County	California	United States of America	us	Capricorn Court, Santa Barbara County, California, United States of America	-120.4735440	34.7130210	-120.4731660	34.7134100			
Orion Avenue		way	16254964	highway	residential	-120.4701715	34.7076151	22	0.2	Orion Avenue		Santa Barbara County	California	United States of America	us	Orion Avenue, Santa Barbara County, California, United States of America	-120.4707390	34.7064879	-120.4688481	34.7085670			
Milky Way		way	16255042	highway	residential	-120.4711036	34.6982155	22	0.2	Milky Way		Santa Barbara County	California	United States of America	us	Milky Way, Santa Barbara County, California, United States of America	-120.4726111	34.6955750	-120.4709021	34.7008759			
Libra Drive		way	16255570	highway	residential	-120.4706896	34.7147842	22	0.2	Libra Drive		Santa Barbara County	California	United States of America	us	Libra Drive, Santa Barbara County, California, United States of America	-120.4717150	34.7143590	-120.4697071	34.7147859			
Vela Way		way	16256366	highway	residential	-120.4741123	34.6935187	22	0.2	Vela Way		Santa Barbara County	California	United States of America	us	Vela Way, Santa Barbara County, California, United States of America	-120.4743060	34.6929340	-120.4740101	34.6941120			
Pegasus Avenue		way	16256449	highway	residential	-120.4709838	34.7090584	22	0.2	Pegasus Avenue		Santa Barbara County	California	United States of America	us	Pegasus Avenue, Santa Barbara County, California, United States of America	-120.4726691	34.7076590	-120.4707431	34.7102099			
Sunbeam Road		way	16256897	highway	residential	-120.4732788	34.6965238	22	0.2	Sunbeam Road		Santa Barbara County	California	United States of America	us	Sunbeam Road, Santa Barbara County, California, United States of America	-120.4733181	34.6955750	-120.4722440	34.6980449			
Aquarius Road		way	16257856	highway	residential	-120.4721628	34.7137418	22	0.2	Aquarius Road		Santa Barbara County	California	United States of America	us	Aquarius Road, Santa Barbara County, California, United States of America	-120.4730980	34.7132070	-120.4711491	34.7143989			
Vega Avenue		way	16257902	highway	residential	-120.4708064	34.7081187	22	0.2	Vega Avenue		Santa Barbara County	California	United States of America	us	Vega Avenue, Santa Barbara County, California, United States of America	-120.4722081	34.7069990	-120.4693400	34.7091629			
Albireo Avenue		way	16259383	highway	residential	-120.4734155	34.7088040	22	0.2	Albireo Avenue		Santa Barbara County	California	United States of America	us	Albireo Avenue, Santa Barbara County, California, United States of America	-120.4736511	34.7087980	-120.4731800	34.7088100			
Mesa Circle Drive		way	16260371	highway	residential	-120.4716775	34.7032938	22	0.2	Mesa Circle Drive		Santa Barbara County	California	United States of America	us	Mesa Circle Drive, Santa Barbara County, California, United States of America	-120.4718130	34.7024249	-120.4697843	34.7038170			
Taurus Road		way	16264080	highway	residential	-120.4719379	34.7156029	22	0.2	Taurus Road		Santa Barbara County	California	United States of America	us	Taurus Road, Santa Barbara County, California, United States of America	-120.4721320	34.7153210	-120.4717540	34.7158759			
Capella Street		way	16264179	highway	residential	-120.4707117	34.6989198	22	0.2	Capella Street		Santa Barbara County	California	United States of America	us	Capella Street, Santa Barbara County, California, United States of America	-120.4725370	34.6975960	-120.4689680	34.7000510			
North Oaks Drive		way	16257772	highway	residential	-120.4728717	34.7119505	22	0.2	North Oaks Drive		Santa Barbara County	California	United States of America	us	North Oaks Drive, Santa Barbara County, California, United States of America	-120.4733061	34.7118239	-120.4721300	34.7124310			
Scorpio Road		way	16255823	highway	residential	-120.4715526	34.7142886	22	0.2	Scorpio Road		Santa Barbara County	California	United States of America	us	Scorpio Road, Santa Barbara County, California, United States of America	-120.4724090	34.7137830	-120.4706230	34.7149009			
Carina Drive		way	16256541	highway	residential	-120.4722433	34.6948352	22	0.2	Carina Drive		Santa Barbara County	California	United States of America	us	Carina Drive, Santa Barbara County, California, United States of America	-120.4727879	34.6919277	-120.4719300	34.6977330			
Draco Drive		way	16261521	highway	residential	-120.4707391	34.6999360	22	0.2	Draco Drive		Santa Barbara County	California	United States of America	us	Draco Drive, Santa Barbara County, California, United States of America	-120.4721900	34.6987519	-120.4699900	34.7008799			
Solar Way		way	16261810	highway	residential	-120.4716212	34.6975551	22	0.2	Solar Way		Santa Barbara County	California	United States of America	us	Solar Way, Santa Barbara County, California, United States of America	-120.4727910	34.6971030	-120.4703991	34.6980719			
Odyssey Court		way	16261932	highway	residential	-120.4725955	34.7127669	22	0.2	Odyssey Court		Santa Barbara County	California	United States of America	us	Odyssey Court, Santa Barbara County, California, United States of America	-120.4727731	34.7125480	-120.4724180	34.7129859			
Goddard Drive		way	241316782	highway	residential	-120.4700772	34.6901118	22	0.2	Goddard Drive		Santa Barbara County	California	United States of America	us	Goddard Drive, Santa Barbara County, California, United States of America	-120.4701832	34.6893672	-120.4699485	34.6908529			
Europa Avenue		way	241316781	highway	residential	-120.4723926	34.6911394	22	0.2	Europa Avenue		Santa Barbara County	California	United States of America	us	Europa Avenue, Santa Barbara County, California, United States of America	-120.4740725	34.6910968	-120.4709773	34.6920681			
Pluto Avenue		way	241316787	highway	residential	-120.4710606	34.6901479	22	0.2	Pluto Avenue		Santa Barbara County	California	United States of America	us	Pluto Avenue, Santa Barbara County, California, United States of America	-120.4711316	34.6893764	-120.4707865	34.6908761			
Sagan Court		way	241316789	highway	residential	-120.4736691	34.6898897	22	0.2	Sagan Court		Santa Barbara County	California	United States of America	us	Sagan Court, Santa Barbara County, California, United States of America	-120.4746546	34.6898622	-120.4726766	34.6899914			
Sagan Circle		way	241316788	highway	residential	-120.4732875	34.6894066	22	0.2	Sagan Circle		Santa Barbara County	California	United States of America	us	Sagan Circle, Santa Barbara County, California, United States of America	-120.4735440	34.6894034	-120.4729799	34.6898888			
South Gray Street		way	210933404	highway	residential	-120.4434368	34.8636136	22	0.2	South Gray Street		Santa Barbara County	California	United States of America	us	South Gray Street, Santa Barbara County, California, United States of America	-120.4434570	34.8620968	-120.4434167	34.8651304			
Domino Avenue		way	16259301	highway	residential	-120.4207655	34.8587833	22	0.2	Domino Avenue		Santa Barbara County	California	United States of America	us	Domino Avenue, Santa Barbara County, California, United States of America	-120.4209852	34.8575339	-120.4199181	34.8597980			
Via del Florista		way	16259466	highway	residential	-120.4135274	34.8582246	22	0.2	Via del Florista		Santa Barbara County	California	United States of America	us	Via del Florista, Santa Barbara County, California, United States of America	-120.4136444	34.8578810	-120.4134103	34.8585682			
Via de la Luna		way	16263871	highway	residential	-120.4161197	34.8581322	22	0.2	Via de la Luna		Santa Barbara County	California	United States of America	us	Via de la Luna, Santa Barbara County, California, United States of America	-120.4162910	34.8578029	-120.4159484	34.8584616			
Grand Court		way	16254970	highway	residential	-120.4242965	34.8597854	22	0.2	Grand Court		Santa Barbara County	California	United States of America	us	Grand Court, Santa Barbara County, California, United States of America	-120.4248131	34.8597830	-120.4237800	34.8597879			
Oakbrook Lane		way	16256885	highway	residential	-120.3989051	34.8599291	22	0.2	Oakbrook Lane		Santa Barbara County	California	United States of America	us	Oakbrook Lane, Santa Barbara County, California, United States of America	-120.4011420	34.8598520	-120.3966691	34.8599740			
Via Esmeralda		way	16257012	highway	residential	-120.4220931	34.8613350	22	0.2	Via Esmeralda		Santa Barbara County	California	United States of America	us	Via Esmeralda, Santa Barbara County, California, United States of America	-120.4259960	34.8585849	-120.4193601	34.8619980			
Via del Palma		way	16257087	highway	residential	-120.4166100	34.8590914	22	0.2	Via del Palma		Santa Barbara County	California	United States of America	us	Via del Palma, Santa Barbara County, California, United States of America	-120.4167824	34.8587637	-120.4164377	34.8594190			
Via Arleta		way	16257296	highway	residential	-120.4157681	34.8572601	22	0.2	Via Arleta		Santa Barbara County	California	United States of America	us	Via Arleta, Santa Barbara County, California, United States of America	-120.4158896	34.8569211	-120.4156466	34.8575992			
Don Pablo Drive		way	16260841	highway	residential	-120.4241458	34.8583733	22	0.2	Don Pablo Drive		Santa Barbara County	California	United States of America	us	Don Pablo Drive, Santa Barbara County, California, United States of America	-120.4263584	34.8583050	-120.4219370	34.8583933			
Clark Avenue		way	16261081	highway	residential	-120.4071491	34.8594357	22	0.2	Clark Avenue		Santa Barbara County	California	United States of America	us	Clark Avenue, Santa Barbara County, California, United States of America	-120.4071530	34.8587859	-120.4069181	34.8601359			
Arroyo Way		way	16262612	highway	residential	-120.4244131	34.8604814	22	0.2	Arroyo Way		Santa Barbara County	California	United States of America	us	Arroyo Way, Santa Barbara County, California, United States of America	-120.4252441	34.8603270	-120.4236301	34.8606730			
Apple Tree Way		way	105864903	highway	residential	-120.4246672	34.8572112	22	0.2	Apple Tree Way		Santa Barbara County	California	United States of America	us	Apple Tree Way, Santa Barbara County, California, United States of America	-120.4257347	34.8571957	-120.4235996	34.8572266			
Redwillow Drive		way	16254279	highway	residential	-120.4334105	34.8614277	22	0.2	Redwillow Drive		Santa Barbara County	California	United States of America	us	Redwillow Drive, Santa Barbara County, California, United States of America	-120.4334271	34.8609696	-120.4333455	34.8618813			
Crescent Avenue		way	16249474	highway	residential	-120.4294641	34.8617006	22	0.2	Crescent Avenue		Santa Barbara County	California	United States of America	us	Crescent Avenue, Santa Barbara County, California, United States of America	-120.4364027	34.8590790	-120.4236581	34.8618889			
Duke Drive		way	16255557	highway	residential	-120.4319141	34.8594911	22	0.2	Duke Drive		Santa Barbara County	California	United States of America	us	Duke Drive, Santa Barbara County, California, United States of America	-120.4319208	34.8587672	-120.4319141	34.8602150			
Lancer Avenue		way	16264105	highway	residential	-120.4272031	34.8596620	22	0.2	Lancer Avenue		Santa Barbara County	California	United States of America	us	Lancer Avenue, Santa Barbara County, California, United States of America	-120.4272101	34.8581769	-120.4269350	34.8610549			
Mountain View Drive		way	16264394	highway	residential	-120.4327274	34.8594874	22	0.2	Mountain View Drive		Santa Barbara County	California	United States of America	us	Mountain View Drive, Santa Barbara County, California, United States of America	-120.4346518	34.8594729	-120.4303230	34.8602411			
Stanford Drive		way	16256657	highway	residential	-120.4280320	34.8601636	22	0.2	Stanford Drive		Santa Barbara County	California	United States of America	us	Stanford Drive, Santa Barbara County, California, United States of America	-120.4281230	34.8594589	-120.4280311	34.8609090			
Cory Court		way	16260251	highway	residential	-120.4293422	34.8602324	22	0.2	Cory Court		Santa Barbara County	California	United States of America	us	Cory Court, Santa Barbara County, California, United States of America	-120.4297340	34.8600710	-120.4289200	34.8602502			
Lorraine Avenue		way	16262221	highway	residential	-120.4263490	34.8589066	22	0.2	Lorraine Avenue		Santa Barbara County	California	United States of America	us	Lorraine Avenue, Santa Barbara County, California, United States of America	-120.4272040	34.8576141	-120.4263472	34.8595933			
Merrilee Way		way	16262440	highway	residential	-120.4327193	34.8605970	22	0.2	Merrilee Way		Santa Barbara County	California	United States of America	us	Merrilee Way, Santa Barbara County, California, United States of America	-120.4327233	34.8602258	-120.4327152	34.8609682			
Morro Drive		way	16263023	highway	residential	-120.4137239	34.9590796	22	0.2	Morro Drive	Santa Maria		California	United States of America	us	Morro Drive, Santa Maria, California, United States of America	-120.4151860	34.9582050	-120.4129670	34.9602060			
Valley Oak Place		way	16254066	highway	residential	-120.4144509	34.9609863	22	0.2	Valley Oak Place	Santa Maria		California	United States of America	us	Valley Oak Place, Santa Maria, California, United States of America	-120.4155310	34.9609580	-120.4133710	34.9610059			
Smoke Tree Lane		way	16258881	highway	residential	-120.4139903	34.9616957	22	0.2	Smoke Tree Lane	Santa Maria		California	United States of America	us	Smoke Tree Lane, Santa Maria, California, United States of America	-120.4146561	34.9616784	-120.4133245	34.9617130			
Lucia Court		way	16257619	highway	residential	-120.4131827	34.9645353	22	0.2	Lucia Court	Santa Maria		California	United States of America	us	Lucia Court, Santa Maria, California, United States of America	-120.4132942	34.9643018	-120.4131404	34.9647914			
Creston Street		way	16258475	highway	residential	-120.4153435	34.9708356	22	0.2	Creston Street	Santa Maria		California	United States of America	us	Creston Street, Santa Maria, California, United States of America	-120.4170910	34.9707660	-120.4135980	34.9708729			
Seaward Drive		way	16254321	highway	residential	-120.4197209	34.9750716	22	0.2	Seaward Drive	Santa Maria		California	United States of America	us	Seaward Drive, Santa Maria, California, United States of America	-120.4260208	34.9712721	-120.4128472	34.9798075			
Somerset Place		way	16259204	highway	residential	-120.4356702	34.6375778	22	0.2	Somerset Place	Lompoc	Santa Barbara County	California	United States of America	us	Somerset Place, Lompoc, Santa Barbara County, California, United States of America	-120.4365331	34.6355100	-120.4356020	34.6394450			
Berkeley Drive		way	16259263	highway	residential	-120.4382890	34.6384718	22	0.2	Berkeley Drive	Lompoc	Santa Barbara County	California	United States of America	us	Berkeley Drive, Lompoc, Santa Barbara County, California, United States of America	-120.4403640	34.6374930	-120.4362680	34.6396009			
South 4th Street		way	16259289	highway	residential	-120.4439911	34.6363874	22	0.2	South 4th Street	Lompoc	Santa Barbara County	California	United States of America	us	South 4th Street, Lompoc, Santa Barbara County, California, United States of America	-120.4439973	34.6356008	-120.4439828	34.6371739			
Amherst Place		way	16259424	highway	residential	-120.4394478	34.6358011	22	0.2	Amherst Place	Lompoc	Santa Barbara County	California	United States of America	us	Amherst Place, Lompoc, Santa Barbara County, California, United States of America	-120.4396961	34.6338270	-120.4392181	34.6377230			
South 1st Place		way	16259411	highway	residential	-120.4472866	34.6366013	22	0.2	South 1st Place	Lompoc	Santa Barbara County	California	United States of America	us	South 1st Place, Lompoc, Santa Barbara County, California, United States of America	-120.4472959	34.6359918	-120.4472772	34.6372109			
Pembrook Drive		way	16259468	highway	residential	-120.4384080	34.6369585	22	0.2	Pembrook Drive	Lompoc	Santa Barbara County	California	United States of America	us	Pembrook Drive, Lompoc, Santa Barbara County, California, United States of America	-120.4394160	34.6368760	-120.4374010	34.6370259			
Camden Drive		way	16259529	highway	residential	-120.4369540	34.6374739	22	0.2	Camden Drive	Lompoc	Santa Barbara County	California	United States of America	us	Camden Drive, Lompoc, Santa Barbara County, California, United States of America	-120.4373700	34.6374320	-120.4365380	34.6375159			
Valley View Drive		way	16260105	highway	residential	-120.4430745	34.6346189	22	0.2	Valley View Drive	Lompoc	Santa Barbara County	California	United States of America	us	Valley View Drive, Lompoc, Santa Barbara County, California, United States of America	-120.4430950	34.6339919	-120.4430526	34.6352459			
Princeton Place		way	16261018	highway	residential	-120.4365222	34.6371580	22	0.2	Princeton Place	Lompoc	Santa Barbara County	California	United States of America	us	Princeton Place, Lompoc, Santa Barbara County, California, United States of America	-120.4372400	34.6351340	-120.4363480	34.6390590			
Peach Avenue		way	16262570	highway	residential	-120.4439768	34.6379803	22	0.2	Peach Avenue	Lompoc	Santa Barbara County	California	United States of America	us	Peach Avenue, Lompoc, Santa Barbara County, California, United States of America	-120.4452458	34.6379748	-120.4427078	34.6379857			
Sweeney Road		way	16262191	highway	residential	-120.3972048	34.6370265	22	0.2	Sweeney Road		Santa Barbara County	California	United States of America	us	Sweeney Road, Santa Barbara County, California, United States of America	-120.4296861	34.6171079	-120.3669421	34.6462060			
Cordoba Avenue		way	16258075	highway	residential	-120.4671336	34.6619610	22	0.2	Cordoba Avenue	Lompoc	Santa Barbara County	California	United States of America	us	Cordoba Avenue, Lompoc, Santa Barbara County, California, United States of America	-120.4678282	34.6619570	-120.4664390	34.6619649			
West Barton Avenue		way	16259345	highway	residential	-120.4659694	34.6573888	22	0.2	West Barton Avenue	Lompoc	Santa Barbara County	California	United States of America	us	West Barton Avenue, Lompoc, Santa Barbara County, California, United States of America	-120.4716400	34.6571410	-120.4575660	34.6609267			220
Westbrook Drive		way	16259824	highway	residential	-120.4658070	34.6591264	22	0.2	Westbrook Drive	Lompoc	Santa Barbara County	California	United States of America	us	Westbrook Drive, Lompoc, Santa Barbara County, California, United States of America	-120.4659220	34.6578359	-120.4657981	34.6603929			
Southbrook Drive		way	16263374	highway	residential	-120.4652952	34.6576494	22	0.2	Southbrook Drive	Lompoc	Santa Barbara County	California	United States of America	us	Southbrook Drive, Lompoc, Santa Barbara County, California, United States of America	-120.4658890	34.6575779	-120.4646901	34.6578359			
B Street		way	16262709	highway	residential	-120.4515426	34.6576595	22	0.2	B Street	Lompoc	Santa Barbara County	California	United States of America	us	B Street, Lompoc, Santa Barbara County, California, United States of America	-120.4515850	34.6570719	-120.4515421	34.6582359			
Hearthstone Lane		way	16253497	highway	residential	-120.4155195	34.9550824	22	0.2	Hearthstone Lane	Santa Maria		California	United States of America	us	Hearthstone Lane, Santa Maria, California, United States of America	-120.4155207	34.9548137	-120.4155183	34.9553512			
El Calle Jon		way	16256138	highway	residential	-120.4167091	34.9563473	22	0.2	El Calle Jon	Santa Maria		California	United States of America	us	El Calle Jon, Santa Maria, California, United States of America	-120.4167131	34.9557829	-120.4161750	34.9564339			
La Paz Circle		way	16255997	highway	residential	-120.4279465	34.9179984	22	0.2	La Paz Circle	Santa Maria		California	United States of America	us	La Paz Circle, Toby Villas, Santa Maria, California, United States of America	-120.4280790	34.9178169	-120.4278141	34.9181799			
Caballero Lane		way	16256378	highway	residential	-120.4295727	34.9188163	22	0.2	Caballero Lane	Santa Maria		California	United States of America	us	Caballero Lane, Toby Villas, Santa Maria, California, United States of America	-120.4308811	34.9165040	-120.4286690	34.9188989			
Cabo San Lucas Circle		way	16263985	highway	residential	-120.4285597	34.9180801	22	0.2	Cabo San Lucas Circle	Santa Maria		California	United States of America	us	Cabo San Lucas Circle, Toby Villas, Santa Maria, California, United States of America	-120.4298431	34.9178889	-120.4277190	34.9188780			
Via de la Cruz		way	16263999	highway	residential	-120.4292417	34.9171295	22	0.2	Via de la Cruz	Santa Maria		California	United States of America	us	Via de la Cruz, Toby Villas, Santa Maria, California, United States of America	-120.4306990	34.9170060	-120.4277851	34.9172169			
Candeleros		way	16264542	highway	residential	-120.4305785	34.9196255	22	0.2	Candeleros	Santa Maria		California	United States of America	us	Candeleros, Toby Villas, Santa Maria, California, United States of America	-120.4306661	34.9194090	-120.4304840	34.9198380			
San Juanico		way	172077814	highway	residential	-120.4302142	34.9191576	22	0.2	San Juanico	Santa Maria		California	United States of America	us	San Juanico, Toby Villas, Santa Maria, California, United States of America	-120.4311134	34.9191460	-120.4292411	34.9195583			
Miller Street		way	172078853	highway	residential	-120.4311114	34.9195651	22	0.2	Miller Street	Santa Maria		California	United States of America	us	Miller Street, Toby Villas, Santa Maria, California, United States of America	-120.4313870	34.9190740	-120.4310226	34.9201220			
Cecelia Drive		way	16260082	highway	residential	-120.4279514	34.9379355	22	0.2	Cecelia Drive	Santa Maria		California	United States of America	us	Cecelia Drive, Santa Maria, California, United States of America	-120.4279680	34.9374049	-120.4279481	34.9384689			
De Armond Place		way	16253880	highway	residential	-120.4293509	34.9389801	22	0.2	De Armond Place	Santa Maria		California	United States of America	us	De Armond Place, Santa Maria, California, United States of America	-120.4306570	34.9389599	-120.4280380	34.9398079			
East Morrison Avenue		way	16255075	highway	residential	-120.4336833	34.9431116	22	0.2	East Morrison Avenue	Santa Maria		California	United States of America	us	East Morrison Avenue, Santa Maria, California, United States of America	-120.4359450	34.9430838	-120.4314217	34.9431180			
Bluebird Street		way	16255618	highway	residential	-120.4284715	34.9360553	22	0.2	Bluebird Street	Santa Maria		California	United States of America	us	Bluebird Street, Santa Maria, California, United States of America	-120.4301861	34.9338989	-120.4283250	34.9366279			
Mariposa Way		way	16256359	highway	residential	-120.4279046	34.9397730	22	0.2	Mariposa Way	Santa Maria		California	United States of America	us	Mariposa Way, Santa Maria, California, United States of America	-120.4332150	34.9395059	-120.4226371	34.9398649			
Lindeman Lane		way	16216325	highway	residential	-120.4297390	34.9257245	22	0.2	Lindeman Lane	Santa Maria		California	United States of America	us	Lindeman Lane, Santa Maria, California, United States of America	-120.4310170	34.9250200	-120.4286750	34.9257630			
Daniel Drive		way	16216387	highway	residential	-120.4300475	34.9238392	22	0.2	Daniel Drive	Santa Maria		California	United States of America	us	Daniel Drive, Santa Maria, California, United States of America	-120.4336828	34.9238350	-120.4276080	34.9257849			
Sequoia Drive		way	16253348	highway	residential	-120.4284006	34.9279692	22	0.2	Sequoia Drive	Santa Maria		California	United States of America	us	Sequoia Drive, Santa Maria, California, United States of America	-120.4309371	34.9257849	-120.4276011	34.9280599			
Lark Street		way	16253914	highway	residential	-120.4292904	34.9328143	22	0.2	Lark Street	Santa Maria		California	United States of America	us	Lark Street, Santa Maria, California, United States of America	-120.4294780	34.9318249	-120.4291930	34.9339109			
Maple Court		way	16259445	highway	residential	-120.4277750	34.9278250	22	0.2	Maple Court	Santa Maria		California	United States of America	us	Maple Court, Santa Maria, California, United States of America	-120.4279820	34.9276630	-120.4275680	34.9279869			
Colorado Street		way	16264503	highway	residential	-120.4303272	34.9291589	22	0.2	Colorado Street	Santa Maria		California	United States of America	us	Colorado Street, Santa Maria, California, United States of America	-120.4303332	34.9285158	-120.4303211	34.9298019			
La Noria		way	16261318	highway	residential	-120.4233521	34.9185456	22	0.2	La Noria	Santa Maria		California	United States of America	us	La Noria, Santa Maria, California, United States of America	-120.4245850	34.9178660	-120.4230991	34.9186340			
Crossroad Lane		way	106469785	highway	residential	-120.4227594	34.9165792	22	0.2	Crossroad Lane	Santa Maria		California	United States of America	us	Crossroad Lane, Santa Maria, California, United States of America	-120.4241995	34.9162792	-120.4212410	34.9165813			
Tulip Lane		way	106472254	highway	residential	-120.4227393	34.9194360	22	0.2	Tulip Lane	Santa Maria		California	United States of America	us	Tulip Lane, Santa Maria, California, United States of America	-120.4230805	34.9193276	-120.4223472	34.9194402			
Alcazar Drive		way	194090540	highway	residential	-120.4326221	34.9171694	22	0.2	Alcazar Drive	Santa Maria		California	United States of America	us	Alcazar Drive, Santa Maria, California, United States of America	-120.4330382	34.9171688	-120.4322059	34.9171699			
Cordoban Lane		way	194090538	highway	residential	-120.4322090	34.9184596	22	0.2	Cordoban Lane	Santa Maria		California	United States of America	us	Cordoban Lane, Santa Maria, California, United States of America	-120.4322283	34.9171699	-120.4322059	34.9197459			
Gilea Court		way	194090547	highway	residential	-120.4331891	34.9197709	22	0.2	Gilea Court	Santa Maria		California	United States of America	us	Gilea Court, Santa Maria, California, United States of America	-120.4341406	34.9197459	-120.4322283	34.9198487			
Ridgemark Drive		way	16262817	highway	residential	-120.4474651	34.9156515	22	0.2	Ridgemark Drive	Santa Maria		California	United States of America	us	Ridgemark Drive, Santa Maria, California, United States of America	-120.4474720	34.9151149	-120.4474581	34.9161880			
Wedgewood Drive		way	16261240	highway	residential	-120.4465992	34.9159170	22	0.2	Wedgewood Drive	Santa Maria		California	United States of America	us	Wedgewood Drive, Santa Maria, California, United States of America	-120.4466101	34.9151050	-120.4465883	34.9167290			
Fairway Vista Drive		way	16263645	highway	residential	-120.4491876	34.9151964	22	0.2	Fairway Vista Drive	Santa Maria		California	United States of America	us	Fairway Vista Drive, Santa Maria, California, United States of America	-120.4526150	34.9151050	-120.4457651	34.9152490			
Tamarisk Drive		way	47172688	highway	residential	-120.4507632	34.6811935	22	0.2	Tamarisk Drive		Santa Barbara County	California	United States of America	us	Tamarisk Drive, Santa Barbara County, California, United States of America	-120.4520213	34.6805500	-120.4493291	34.6821997			
Buckhorn Lane		way	47172690	highway	residential	-120.4497178	34.6820928	22	0.2	Buckhorn Lane		Santa Barbara County	California	United States of America	us	Buckhorn Lane, Santa Barbara County, California, United States of America	-120.4504993	34.6809967	-120.4494695	34.6833862			
Coopers Road		way	16249558	highway	residential	-120.3765640	34.6856153	22	0.2	Coopers Road		Santa Barbara County	California	United States of America	us	Coopers Road, Santa Barbara County, California, United States of America	-120.3780930	34.6855960	-120.3750351	34.6856369			
Penny Lane		way	16257537	highway	residential	-120.3863341	34.7330884	22	0.2	Penny Lane		Santa Barbara County	California	United States of America	us	Penny Lane, Santa Barbara County, California, United States of America	-120.3917300	34.7255100	-120.3760490	34.7425470			
Batchelder Road		way	16264595	highway	residential	-120.3733860	34.7491230	22	0.2	Batchelder Road		Santa Barbara County	California	United States of America	us	Batchelder Road, Santa Barbara County, California, United States of America	-120.3763741	34.7425470	-120.3698331	34.7551160			
Hampshire Lane		way	16263162	highway	residential	-120.4172554	34.8872036	22	0.2	Hampshire Lane		Santa Barbara County	California	United States of America	us	Hampshire Lane, Santa Barbara County, California, United States of America	-120.4181527	34.8871206	-120.4164100	34.8875127			
Glen Ellen Lane		way	16254500	highway	residential	-120.4174190	34.8877033	22	0.2	Glen Ellen Lane		Santa Barbara County	California	United States of America	us	Glen Ellen Lane, Santa Barbara County, California, United States of America	-120.4181050	34.8876387	-120.4167732	34.8879416			
Cardiff Lane		way	16257904	highway	residential	-120.4176335	34.8882066	22	0.2	Cardiff Lane		Santa Barbara County	California	United States of America	us	Cardiff Lane, Santa Barbara County, California, United States of America	-120.4181817	34.8881694	-120.4171148	34.8883859			
Laurel Court		way	16264481	highway	residential	-120.4202643	34.8888255	22	0.2	Laurel Court		Santa Barbara County	California	United States of America	us	Laurel Court, Santa Barbara County, California, United States of America	-120.4207951	34.8888252	-120.4197492	34.8889370			
Edgewood Avenue		way	207944559	highway	residential	-120.4256849	34.8873263	22	0.2	Edgewood Avenue		Santa Barbara County	California	United States of America	us	Edgewood Avenue, Santa Barbara County, California, United States of America	-120.4269113	34.8872152	-120.4244695	34.8875490			
Southlyn Place		way	16258436	highway	residential	-120.4180031	34.8898471	22	0.2	Southlyn Place		Santa Barbara County	California	United States of America	us	Southlyn Place, Santa Barbara County, California, United States of America	-120.4182590	34.8898458	-120.4177471	34.8898484			
Blackwood Court		way	16216348	highway	residential	-120.4226285	34.8884915	22	0.2	Blackwood Court		Santa Barbara County	California	United States of America	us	Blackwood Court, Santa Barbara County, California, United States of America	-120.4226311	34.8881269	-120.4226258	34.8888562			
Woodhaven Court		way	16255038	highway	residential	-120.4262552	34.8880113	22	0.2	Woodhaven Court		Santa Barbara County	California	United States of America	us	Woodhaven Court, Santa Barbara County, California, United States of America	-120.4269060	34.8879938	-120.4256174	34.8881455			
Terrace Avenue		way	207956710	highway	residential	-120.4208011	34.8882147	22	0.2	Terrace Avenue		Santa Barbara County	California	United States of America	us	Terrace Avenue, Santa Barbara County, California, United States of America	-120.4208012	34.8881295	-120.4191897	34.8897387			
Tiffany Park Circle		way	16257607	highway	residential	-120.4049889	34.8665629	22	0.2	Tiffany Park Circle		Santa Barbara County	California	United States of America	us	Tiffany Park Circle, Santa Barbara County, California, United States of America	-120.4050481	34.8656117	-120.4022046	34.8694429			
Rosalie Drive		way	16257934	highway	residential	-120.4071243	34.8682421	22	0.2	Rosalie Drive		Santa Barbara County	California	United States of America	us	Rosalie Drive, Santa Barbara County, California, United States of America	-120.4082001	34.8682290	-120.4060441	34.8682550			
Spur Drive		way	16262566	highway	residential	-120.4055360	34.8671575	22	0.2	Spur Drive		Santa Barbara County	California	United States of America	us	Spur Drive, Santa Barbara County, California, United States of America	-120.4060551	34.8671519	-120.4050170	34.8671630			
Emerald Court		way	16250005	highway	residential	-120.4248320	34.8838651	22	0.2	Emerald Court		Santa Barbara County	California	United States of America	us	Emerald Court, Santa Barbara County, California, United States of America	-120.4252013	34.8838312	-120.4244581	34.8838657			
Brookside Place		way	16253830	highway	residential	-120.4230989	34.8801641	22	0.2	Brookside Place		Santa Barbara County	California	United States of America	us	Brookside Place, Santa Barbara County, California, United States of America	-120.4231038	34.8799465	-120.4230940	34.8803818			
Brookside Avenue		way	16254841	highway	residential	-120.4226202	34.8799536	22	0.2	Brookside Avenue		Santa Barbara County	California	United States of America	us	Brookside Avenue, Santa Barbara County, California, United States of America	-120.4259191	34.8799040	-120.4193213	34.8800031			
Sunnyslope Lane		way	16255012	highway	residential	-120.4174899	34.8859374	22	0.2	Sunnyslope Lane		Santa Barbara County	California	United States of America	us	Sunnyslope Lane, Santa Barbara County, California, United States of America	-120.4181767	34.8858122	-120.4168131	34.8859840			
Chatham Way		way	16257998	highway	residential	-120.4166729	34.8868582	22	0.2	Chatham Way		Santa Barbara County	California	United States of America	us	Chatham Way, Santa Barbara County, California, United States of America	-120.4169764	34.8863607	-120.4166665	34.8872714			
Sylvan Court		way	16258309	highway	residential	-120.4196026	34.8826180	22	0.2	Sylvan Court		Santa Barbara County	California	United States of America	us	Sylvan Court, Santa Barbara County, California, United States of America	-120.4198639	34.8826175	-120.4193414	34.8826212			
Plumeria Court		way	16258762	highway	residential	-120.4158540	34.8805473	22	0.2	Plumeria Court		Santa Barbara County	California	United States of America	us	Plumeria Court, Santa Barbara County, California, United States of America	-120.4158628	34.8800864	-120.4158452	34.8810081			
Blossom Drive		way	16264522	highway	residential	-120.4128832	34.8827448	22	0.2	Blossom Drive		Santa Barbara County	California	United States of America	us	Blossom Drive, Santa Barbara County, California, United States of America	-120.4136835	34.8825792	-120.4121392	34.8830873			
Parkland Drive		way	16249368	highway	residential	-120.4164762	34.8809986	22	0.2	Parkland Drive		Santa Barbara County	California	United States of America	us	Parkland Drive, Santa Barbara County, California, United States of America	-120.4187462	34.8809635	-120.4142061	34.8810247			
Shady Glade Drive		way	16249891	highway	residential	-120.4198717	34.8815577	22	0.2	Shady Glade Drive		Santa Barbara County	California	United States of America	us	Shady Glade Drive, Santa Barbara County, California, United States of America	-120.4198735	34.8799967	-120.4198195	34.8831224			
Glenridge Lane		way	16250607	highway	residential	-120.4172765	34.8864381	22	0.2	Glenridge Lane		Santa Barbara County	California	United States of America	us	Glenridge Lane, Santa Barbara County, California, United States of America	-120.4181803	34.8862207	-120.4164018	34.8865108			
Sunnyside Avenue		way	16253642	highway	residential	-120.4244440	34.8821614	22	0.2	Sunnyside Avenue		Santa Barbara County	California	United States of America	us	Sunnyside Avenue, Santa Barbara County, California, United States of America	-120.4258156	34.8821518	-120.4230686	34.8821811			
Fountain Drive		way	16253841	highway	residential	-120.4125216	34.8821893	22	0.2	Fountain Drive		Santa Barbara County	California	United States of America	us	Fountain Drive, Santa Barbara County, California, United States of America	-120.4133730	34.8820373	-120.4117381	34.8825569			1368
Berwyn Drive		way	16254297	highway	residential	-120.4158408	34.8866291	22	0.2	Berwyn Drive		Santa Barbara County	California	United States of America	us	Berwyn Drive, Santa Barbara County, California, United States of America	-120.4182242	34.8833328	-120.4157475	34.8893471			
Larchmont Court		way	16254422	highway	residential	-120.4226098	34.8871126	22	0.2	Larchmont Court		Santa Barbara County	California	United States of America	us	Larchmont Court, Santa Barbara County, California, United States of America	-120.4226112	34.8868197	-120.4226083	34.8874055			
Breezy Glen Drive		way	16254651	highway	residential	-120.4124215	34.8811379	22	0.2	Breezy Glen Drive		Santa Barbara County	California	United States of America	us	Breezy Glen Drive, Santa Barbara County, California, United States of America	-120.4134787	34.8799388	-120.4122318	34.8815431			
Mayfield Street		way	16257510	highway	residential	-120.4258401	34.8826261	22	0.2	Mayfield Street		Santa Barbara County	California	United States of America	us	Mayfield Street, Santa Barbara County, California, United States of America	-120.4258410	34.8821811	-120.4258156	34.8830764			
Devonshire Place		way	16257817	highway	residential	-120.4184024	34.8846400	22	0.2	Devonshire Place		Santa Barbara County	California	United States of America	us	Devonshire Place, Santa Barbara County, California, United States of America	-120.4184044	34.8842632	-120.4172701	34.8848884			
Morning Ridge Road		way	16257928	highway	residential	-120.4135667	34.8814199	22	0.2	Morning Ridge Road		Santa Barbara County	California	United States of America	us	Morning Ridge Road, Santa Barbara County, California, United States of America	-120.4137963	34.8794321	-120.4133691	34.8832964			
Sumner Place		way	16258745	highway	residential	-120.4158573	34.8842020	22	0.2	Sumner Place		Santa Barbara County	California	United States of America	us	Sumner Place, Santa Barbara County, California, United States of America	-120.4168691	34.8841752	-120.4148453	34.8842082			
Fernview Street		way	16259026	highway	residential	-120.4253793	34.8805733	22	0.2	Fernview Street		Santa Barbara County	California	United States of America	us	Fernview Street, Santa Barbara County, California, United States of America	-120.4253858	34.8799122	-120.4253727	34.8812344			
East Foster Road		way	16258958	highway	residential	-120.4245185	34.8830883	22	0.2	East Foster Road		Santa Barbara County	California	United States of America	us	East Foster Road, Santa Barbara County, California, United States of America	-120.4365078	34.8830674	-120.4125682	34.8835069			
Millstone Avenue		way	16259609	highway	residential	-120.4246890	34.8812395	22	0.2	Millstone Avenue		Santa Barbara County	California	United States of America	us	Millstone Avenue, Santa Barbara County, California, United States of America	-120.4274151	34.8812199	-120.4219629	34.8812589			
Hilltop Road		way	16259628	highway	residential	-120.4148200	34.8850968	22	0.2	Hilltop Road		Santa Barbara County	California	United States of America	us	Hilltop Road, Santa Barbara County, California, United States of America	-120.4166705	34.8832770	-120.4147612	34.8851807			
Bridgeport Road		way	16259705	highway	residential	-120.4108307	34.8811686	22	0.2	Bridgeport Road		Santa Barbara County	California	United States of America	us	Bridgeport Road, Santa Barbara County, California, United States of America	-120.4129372	34.8798668	-120.4107523	34.8835069			
Cherry Hill Road		way	16259578	highway	residential	-120.4181164	34.8873417	22	0.2	Cherry Hill Road		Santa Barbara County	California	United States of America	us	Cherry Hill Road, Santa Barbara County, California, United States of America	-120.4183218	34.8852188	-120.4168059	34.8905213			
Cedarhurst Drive		way	16261646	highway	residential	-120.4166137	34.8852864	22	0.2	Cedarhurst Drive		Santa Barbara County	California	United States of America	us	Cedarhurst Drive, Santa Barbara County, California, United States of America	-120.4168711	34.8832359	-120.4150043	34.8865786			
Pinelake Street		way	16264089	highway	residential	-120.4242532	34.8799641	22	0.2	Pinelake Street		Santa Barbara County	California	United States of America	us	Pinelake Street, Santa Barbara County, California, United States of America	-120.4242621	34.8795544	-120.4242442	34.8803738			
Berrywood Drive		way	16264490	highway	residential	-120.4235577	34.8862834	22	0.2	Berrywood Drive		Santa Barbara County	California	United States of America	us	Berrywood Drive, Santa Barbara County, California, United States of America	-120.4237174	34.8838735	-120.4235498	34.8886580			
Lantana Court		way	16264592	highway	residential	-120.4169293	34.8805305	22	0.2	Lantana Court		Santa Barbara County	California	United States of America	us	Lantana Court, Santa Barbara County, California, United States of America	-120.4169406	34.8800695	-120.4169180	34.8809915			
Hibiscus Court		way	16264666	highway	residential	-120.4179687	34.8805118	22	0.2	Hibiscus Court		Santa Barbara County	California	United States of America	us	Hibiscus Court, Santa Barbara County, California, United States of America	-120.4179808	34.8800483	-120.4179565	34.8809754			
Hillview Road		way	207944558	highway	residential	-120.4252391	34.8906591	22	0.2	Hillview Road		Santa Barbara County	California	United States of America	us	Hillview Road, Santa Barbara County, California, United States of America	-120.4252395	34.8830889	-120.4244438	34.8981099			
Crestmont Drive		way	207956717	highway	residential	-120.4217150	34.8885989	22	0.2	Crestmont Drive		Santa Barbara County	California	United States of America	us	Crestmont Drive, Santa Barbara County, California, United States of America	-120.4217292	34.8868222	-120.4211125	34.8901859			
Arborea Court		way	16263339	highway	residential	-120.4195954	34.8817937	22	0.2	Arborea Court		Santa Barbara County	California	United States of America	us	Arborea Court, Santa Barbara County, California, United States of America	-120.4198710	34.8817418	-120.4193295	34.8817959			
Wisteria Court		way	16253865	highway	residential	-120.4147807	34.8805624	22	0.2	Wisteria Court		Santa Barbara County	California	United States of America	us	Wisteria Court, Santa Barbara County, California, United States of America	-120.4147912	34.8801001	-120.4147703	34.8810247			
Morningside Drive		way	16258660	highway	residential	-120.4139259	34.8864413	22	0.2	Morningside Drive		Santa Barbara County	California	United States of America	us	Morningside Drive, Santa Barbara County, California, United States of America	-120.4177530	34.8816674	-120.4070859	34.8943000			
Glenview Drive		way	16259762	highway	residential	-120.4208849	34.8814729	22	0.2	Glenview Drive		Santa Barbara County	California	United States of America	us	Glenview Drive, Santa Barbara County, California, United States of America	-120.4219637	34.8808589	-120.4208754	34.8831158			
Stratford Street		way	16260412	highway	residential	-120.4240068	34.8854520	22	0.2	Stratford Street		Santa Barbara County	California	United States of America	us	Stratford Street, Santa Barbara County, California, United States of America	-120.4244501	34.8854490	-120.4235635	34.8854550			
Misty Elm Court		way	16262971	highway	residential	-120.4195942	34.8809904	22	0.2	Misty Elm Court		Santa Barbara County	California	United States of America	us	Misty Elm Court, Santa Barbara County, California, United States of America	-120.4198731	34.8809097	-120.4193275	34.8810083			
Whispering Pines Drive		way	16263460	highway	residential	-120.4116763	34.8812809	22	0.2	Whispering Pines Drive		Santa Barbara County	California	United States of America	us	Whispering Pines Drive, Santa Barbara County, California, United States of America	-120.4123732	34.8801325	-120.4114124	34.8822393			
Frontage Road		way	170314715	highway	residential	-120.4131436	34.8839673	22	0.2	Frontage Road		Santa Barbara County	California	United States of America	us	Frontage Road, Santa Barbara County, California, United States of America	-120.4132881	34.8833167	-120.4130895	34.8845477			
Larch Avenue		way	207836502	highway	residential	-120.4211360	34.8868237	22	0.2	Larch Avenue		Santa Barbara County	California	United States of America	us	Larch Avenue, Santa Barbara County, California, United States of America	-120.4235540	34.8868174	-120.4187179	34.8868300			
Shady Lane		way	16261040	highway	residential	-120.4279514	34.8819844	22	0.2	Shady Lane		Santa Barbara County	California	United States of America	us	Shady Lane, Santa Barbara County, California, United States of America	-120.4283741	34.8819815	-120.4275287	34.8819872			
Tilia Street		way	16257680	highway	residential	-120.4278731	34.8844230	22	0.2	Tilia Street		Santa Barbara County	California	United States of America	us	Tilia Street, Santa Barbara County, California, United States of America	-120.4281726	34.8844203	-120.4275737	34.8844258			
Fairmont Avenue		way	16259779	highway	residential	-120.4279037	34.8863193	22	0.2	Fairmont Avenue		Santa Barbara County	California	United States of America	us	Fairmont Avenue, Santa Barbara County, California, United States of America	-120.4313677	34.8860995	-120.4244438	34.8867393			
Lockford Street		way	16255994	highway	residential	-120.4269138	34.8821455	22	0.2	Lockford Street		Santa Barbara County	California	United States of America	us	Lockford Street, Santa Barbara County, California, United States of America	-120.4269168	34.8812235	-120.4269109	34.8830674			
Shirley Lane		way	207809178	highway	residential	-120.4320630	34.8855781	22	0.2	Shirley Lane		Santa Barbara County	California	United States of America	us	Shirley Lane, Santa Barbara County, California, United States of America	-120.4362520	34.8854391	-120.4278852	34.8856953			
Loch Lomond Drive		way	207944557	highway	residential	-120.4269208	34.8858487	22	0.2	Loch Lomond Drive		Santa Barbara County	California	United States of America	us	Loch Lomond Drive, Santa Barbara County, California, United States of America	-120.4269230	34.8854350	-120.4244475	34.8887813			
Zircon Court		way	16256329	highway	residential	-120.4038595	34.8693542	22	0.2	Zircon Court		Santa Barbara County	California	United States of America	us	Zircon Court, Santa Barbara County, California, United States of America	-120.4041337	34.8693357	-120.4035877	34.8693904			
Mandeville Court		way	16254801	highway	residential	-120.4070523	34.8717873	22	0.2	Mandeville Court		Santa Barbara County	California	United States of America	us	Mandeville Court, Santa Barbara County, California, United States of America	-120.4070776	34.8715868	-120.4070269	34.8719879			
Shetland Court		way	16249105	highway	residential	-120.4099138	34.8754731	22	0.2	Shetland Court		Santa Barbara County	California	United States of America	us	Shetland Court, Santa Barbara County, California, United States of America	-120.4106529	34.8754030	-120.4091783	34.8755112			
Corsica Drive		way	16250397	highway	residential	-120.4049895	34.8715098	22	0.2	Corsica Drive		Santa Barbara County	California	United States of America	us	Corsica Drive, Santa Barbara County, California, United States of America	-120.4050937	34.8705754	-120.4044683	34.8721887			
Maritime Drive		way	16255488	highway	residential	-120.4066723	34.8756520	22	0.2	Maritime Drive		Santa Barbara County	California	United States of America	us	Maritime Drive, Santa Barbara County, California, United States of America	-120.4068116	34.8750445	-120.4063003	34.8761745			
Tatum Court		way	16256457	highway	residential	-120.4081613	34.8776987	22	0.2	Tatum Court		Santa Barbara County	California	United States of America	us	Tatum Court, Santa Barbara County, California, United States of America	-120.4085228	34.8776844	-120.4078110	34.8778254			
Ivory Drive		way	16257685	highway	residential	-120.4043243	34.8720210	22	0.2	Ivory Drive		Santa Barbara County	California	United States of America	us	Ivory Drive, Santa Barbara County, California, United States of America	-120.4063910	34.8709826	-120.4024037	34.8728358			
Monte Carlo Court		way	16258480	highway	residential	-120.4088468	34.8733007	22	0.2	Monte Carlo Court		Santa Barbara County	California	United States of America	us	Monte Carlo Court, Santa Barbara County, California, United States of America	-120.4092440	34.8728057	-120.4085462	34.8737202			
Oswego Way		way	16258764	highway	residential	-120.4079471	34.8752661	22	0.2	Oswego Way		Santa Barbara County	California	United States of America	us	Oswego Way, Santa Barbara County, California, United States of America	-120.4082270	34.8752483	-120.4076656	34.8752700			
Monaco Court		way	16259099	highway	residential	-120.4079086	34.8735491	22	0.2	Monaco Court		Santa Barbara County	California	United States of America	us	Monaco Court, Santa Barbara County, California, United States of America	-120.4083990	34.8728196	-120.4075590	34.8742036			
Woodmere Road		way	16261027	highway	residential	-120.4145315	34.8769023	22	0.2	Woodmere Road		Santa Barbara County	California	United States of America	us	Woodmere Road, Santa Barbara County, California, United States of America	-120.4264654	34.8706844	-120.4012982	34.8788573			
Florette Drive		way	16257100	highway	residential	-120.4062930	34.8734875	22	0.2	Florette Drive		Santa Barbara County	California	United States of America	us	Florette Drive, Santa Barbara County, California, United States of America	-120.4066199	34.8733687	-120.4059651	34.8736037			
Oak Knoll Road		way	16260410	highway	residential	-120.4097328	34.8701752	22	0.2	Oak Knoll Road		Santa Barbara County	California	United States of America	us	Oak Knoll Road, Santa Barbara County, California, United States of America	-120.4179125	34.8685650	-120.4011227	34.8707919			1219
Bathurst Drive		way	16260733	highway	residential	-120.4068713	34.8749896	22	0.2	Bathurst Drive		Santa Barbara County	California	United States of America	us	Bathurst Drive, Santa Barbara County, California, United States of America	-120.4075779	34.8747209	-120.4061544	34.8752302			
Genoa Way		way	16261821	highway	residential	-120.4073744	34.8737990	22	0.2	Genoa Way		Santa Barbara County	California	United States of America	us	Genoa Way, Santa Barbara County, California, United States of America	-120.4096413	34.8728525	-120.4050646	34.8744928			
Stockton Street		way	16262505	highway	residential	-120.4077280	34.8691327	22	0.2	Stockton Street		Santa Barbara County	California	United States of America	us	Stockton Street, Santa Barbara County, California, United States of America	-120.4094431	34.8690252	-120.4060115	34.8691389			
Floradale Avenue		way	16258549	highway	residential	-120.4929214	34.6558376	22	0.2	Floradale Avenue		Santa Barbara County	California	United States of America	us	Floradale Avenue, Santa Barbara County, California, United States of America	-120.4931501	34.6399060	-120.4926930	34.6717419			
P A Road		way	16262761	highway	residential	-120.4994366	34.6267789	22	0.2	P A Road		Santa Barbara County	California	United States of America	us	P A Road, Santa Barbara County, California, United States of America	-120.5006360	34.6256099	-120.4990100	34.6272629			
Lunar Circle		way	16258885	highway	residential	-120.4641886	34.6926271	22	0.2	Lunar Circle		Santa Barbara County	California	United States of America	us	Lunar Circle, Santa Barbara County, California, United States of America	-120.4661301	34.6926254	-120.4637561	34.6946706			
Sirius Avenue		way	16264108	highway	residential	-120.4731001	34.7092071	22	0.2	Sirius Avenue		Santa Barbara County	California	United States of America	us	Sirius Avenue, Santa Barbara County, California, United States of America	-120.4731810	34.7038165	-120.4683610	34.7141010			
Stanford Circle		way	16253244	highway	residential	-120.4604856	34.7155730	22	0.2	Stanford Circle		Santa Barbara County	California	United States of America	us	Stanford Circle, Santa Barbara County, California, United States of America	-120.4628420	34.7150439	-120.4596581	34.7155790			
Titan Avenue		way	16253881	highway	residential	-120.4699753	34.7154904	22	0.2	Titan Avenue		Santa Barbara County	California	United States of America	us	Titan Avenue, Santa Barbara County, California, United States of America	-120.4737580	34.7139110	-120.4658561	34.7157570			
Mizar Place		way	16254423	highway	residential	-120.4659263	34.7102009	22	0.2	Mizar Place		Santa Barbara County	California	United States of America	us	Mizar Place, Santa Barbara County, California, United States of America	-120.4672700	34.7094229	-120.4646161	34.7105320			
Greenbriar Road		way	16255119	highway	residential	-120.4538299	34.7172936	22	0.2	Greenbriar Road		Santa Barbara County	California	United States of America	us	Greenbriar Road, Santa Barbara County, California, United States of America	-120.4539550	34.7171470	-120.4537191	34.7174510			
Agena Way		way	16255081	highway	residential	-120.4628486	34.7062951	22	0.2	Agena Way		Santa Barbara County	California	United States of America	us	Agena Way, Santa Barbara County, California, United States of America	-120.4635981	34.7044810	-120.4623210	34.7080180			
Galaxy Way		way	16255268	highway	residential	-120.4648293	34.7123253	22	0.2	Galaxy Way		Santa Barbara County	California	United States of America	us	Galaxy Way, Santa Barbara County, California, United States of America	-120.4663411	34.7116880	-120.4620141	34.7156779			
Constellation Way		way	16255509	highway	residential	-120.4655657	34.7014354	22	0.2	Constellation Way		Santa Barbara County	California	United States of America	us	Constellation Way, Santa Barbara County, California, United States of America	-120.4658732	34.7012529	-120.4652521	34.7016277			
Antares Avenue		way	16255808	highway	residential	-120.4681840	34.7051107	22	0.2	Antares Avenue		Santa Barbara County	California	United States of America	us	Antares Avenue, Santa Barbara County, California, United States of America	-120.4697470	34.7047690	-120.4665851	34.7052239			
Oakwood Circle		way	16255945	highway	residential	-120.4547723	34.7091887	22	0.2	Oakwood Circle		Santa Barbara County	California	United States of America	us	Oakwood Circle, Santa Barbara County, California, United States of America	-120.4562400	34.7091390	-120.4533090	34.7093570			
Terra Way		way	16255980	highway	residential	-120.4692113	34.6974235	22	0.2	Terra Way		Santa Barbara County	California	United States of America	us	Terra Way, Santa Barbara County, California, United States of America	-120.4695516	34.6959897	-120.4678750	34.6979240			
Spica Way		way	16257381	highway	residential	-120.4637198	34.7061710	22	0.2	Spica Way		Santa Barbara County	California	United States of America	us	Spica Way, Santa Barbara County, California, United States of America	-120.4640080	34.7044970	-120.4631501	34.7073690			
Saint Andrews Court		way	16257446	highway	residential	-120.4546365	34.7064542	22	0.2	Saint Andrews Court		Santa Barbara County	California	United States of America	us	Saint Andrews Court, Santa Barbara County, California, United States of America	-120.4546671	34.7060679	-120.4545231	34.7068540			
La Quinta Way		way	16257608	highway	residential	-120.4615213	34.7128084	22	0.2	La Quinta Way		Santa Barbara County	California	United States of America	us	La Quinta Way, Santa Barbara County, California, United States of America	-120.4620190	34.7127350	-120.4610221	34.7128739			
Arneb Avenue		way	16257708	highway	residential	-120.4640100	34.7043304	22	0.2	Arneb Avenue		Santa Barbara County	California	United States of America	us	Arneb Avenue, Santa Barbara County, California, United States of America	-120.4640920	34.7040579	-120.4639281	34.7046029			
Sweetsage Court		way	16257733	highway	residential	-120.4527555	34.6782478	22	0.2	Sweetsage Court		Santa Barbara County	California	United States of America	us	Sweetsage Court, Santa Barbara County, California, United States of America	-120.4529727	34.6781621	-120.4525384	34.6783334			
Oak Hill Drive		way	16258288	highway	residential	-120.4573626	34.7186691	22	0.2	Oak Hill Drive		Santa Barbara County	California	United States of America	us	Oak Hill Drive, Santa Barbara County, California, United States of America	-120.4632550	34.7145519	-120.4526261	34.7190249			
Doral Drive		way	16258575	highway	residential	-120.4567231	34.7184705	22	0.2	Doral Drive		Santa Barbara County	California	United States of America	us	Doral Drive, Santa Barbara County, California, United States of America	-120.4570541	34.7183160	-120.4563921	34.7186249			
Saint Anne's Place		way	16259171	highway	residential	-120.4566568	34.7069551	22	0.2	Saint Anne's Place		Santa Barbara County	California	United States of America	us	Saint Anne's Place, Santa Barbara County, California, United States of America	-120.4574541	34.7069319	-120.4559001	34.7072469			
Alcor Avenue		way	16259221	highway	residential	-120.4669067	34.7105218	22	0.2	Alcor Avenue		Santa Barbara County	California	United States of America	us	Alcor Avenue, Santa Barbara County, California, United States of America	-120.4677590	34.7100310	-120.4660630	34.7110250			
Auriga Avenue		way	16259403	highway	residential	-120.4671795	34.7122080	22	0.2	Auriga Avenue		Santa Barbara County	California	United States of America	us	Auriga Avenue, Santa Barbara County, California, United States of America	-120.4687110	34.7112650	-120.4655340	34.7130060			
Vanguard Drive		way	16261156	highway	residential	-120.4664824	34.7127412	22	0.2	Vanguard Drive		Santa Barbara County	California	United States of America	us	Vanguard Drive, Santa Barbara County, California, United States of America	-120.4675410	34.7106610	-120.4639880	34.7157349			
Mars Avenue		way	16262869	highway	residential	-120.4683618	34.6953042	22	0.2	Mars Avenue		Santa Barbara County	California	United States of America	us	Mars Avenue, Santa Barbara County, California, United States of America	-120.4686891	34.6941609	-120.4668301	34.6970140			
Burnham Drive		way	16263030	highway	residential	-120.4553855	34.7057640	22	0.2	Burnham Drive		Santa Barbara County	California	United States of America	us	Burnham Drive, Santa Barbara County, California, United States of America	-120.4554050	34.7055410	-120.4553660	34.7059870			
Altair Avenue		way	16263035	highway	residential	-120.4684800	34.7058282	22	0.2	Altair Avenue		Santa Barbara County	California	United States of America	us	Altair Avenue, Santa Barbara County, California, United States of America	-120.4701551	34.7054389	-120.4667810	34.7060279			
Polaris Avenue		way	16263041	highway	residential	-120.4687435	34.7084431	22	0.2	Polaris Avenue		Santa Barbara County	California	United States of America	us	Polaris Avenue, Santa Barbara County, California, United States of America	-120.4718801	34.7052239	-120.4664970	34.7108319			
Regulus Avenue		way	16263393	highway	residential	-120.4688074	34.7067125	22	0.2	Regulus Avenue		Santa Barbara County	California	United States of America	us	Regulus Avenue, Santa Barbara County, California, United States of America	-120.4692680	34.7057360	-120.4678500	34.7073710			
Arcturus Avenue		way	16263539	highway	residential	-120.4673167	34.7124759	22	0.2	Arcturus Avenue		Santa Barbara County	California	United States of America	us	Arcturus Avenue, Santa Barbara County, California, United States of America	-120.4683610	34.7110250	-120.4660561	34.7141010			
Falcon Drive		way	16260350	highway	residential	-120.4699578	34.7142328	22	0.2	Falcon Drive		Santa Barbara County	California	United States of America	us	Falcon Drive, Santa Barbara County, California, United States of America	-120.4719420	34.7121330	-120.4672071	34.7149970			
Uranus Avenue		way	16260713	highway	residential	-120.4661661	34.6957868	22	0.2	Uranus Avenue		Santa Barbara County	California	United States of America	us	Uranus Avenue, Santa Barbara County, California, United States of America	-120.4684261	34.6946706	-120.4637561	34.6970860			
Muirfield Place		way	16260981	highway	residential	-120.4583518	34.7076195	22	0.2	Muirfield Place		Santa Barbara County	California	United States of America	us	Muirfield Place, Santa Barbara County, California, United States of America	-120.4589931	34.7067990	-120.4577021	34.7084299			
Medinah Lane		way	16261154	highway	residential	-120.4561850	34.7172670	22	0.2	Medinah Lane		Santa Barbara County	California	United States of America	us	Medinah Lane, Santa Barbara County, California, United States of America	-120.4569610	34.7170510	-120.4554090	34.7174830			
Hercules Avenue		way	16261007	highway	residential	-120.4686324	34.7123232	22	0.2	Hercules Avenue		Santa Barbara County	California	United States of America	us	Hercules Avenue, Santa Barbara County, California, United States of America	-120.4696760	34.7120770	-120.4675440	34.7128419			
Oakmont Avenue		way	16261326	highway	residential	-120.4594248	34.7075898	22	0.2	Oakmont Avenue		Santa Barbara County	California	United States of America	us	Oakmont Avenue, Santa Barbara County, California, United States of America	-120.4594460	34.7060569	-120.4581060	34.7092870			
Aries Avenue		way	16261524	highway	residential	-120.4677962	34.7108917	22	0.2	Aries Avenue		Santa Barbara County	California	United States of America	us	Aries Avenue, Santa Barbara County, California, United States of America	-120.4682520	34.7106149	-120.4673720	34.7112029			
Altair Place		way	16261717	highway	residential	-120.4680720	34.7060535	22	0.2	Altair Place		Santa Barbara County	California	United States of America	us	Altair Place, Santa Barbara County, California, United States of America	-120.4680770	34.7058450	-120.4680671	34.7062620			
Vulcan Drive		way	16261941	highway	residential	-120.4643084	34.7025105	22	0.2	Vulcan Drive		Santa Barbara County	California	United States of America	us	Vulcan Drive, Santa Barbara County, California, United States of America	-120.4653861	34.7024039	-120.4632310	34.7026141			
Oakwood Road		way	16262518	highway	residential	-120.4543971	34.7095777	22	0.2	Oakwood Road		Santa Barbara County	California	United States of America	us	Oakwood Road, Santa Barbara County, California, United States of America	-120.4551180	34.7087469	-120.4541390	34.7099119			
Silver Sage Lane		way	47172687	highway	residential	-120.4517343	34.6826225	22	0.2	Silver Sage Lane		Santa Barbara County	California	United States of America	us	Silver Sage Lane, Santa Barbara County, California, United States of America	-120.4520213	34.6821997	-120.4515281	34.6830951			
Rincon Drive		way	16262595	highway	residential	-120.1454741	34.5733040	22	0.2	Rincon Drive	Solvang	Santa Barbara County	California	United States of America	us	Rincon Drive, Solvang, Santa Barbara County, California, United States of America	-120.1468840	34.5729729	-120.1438560	34.5741799			
Ironwood Way		way	16258960	highway	residential	-120.1470084	34.5880640	22	0.2	Ironwood Way	Solvang	Santa Barbara County	California	United States of America	us	Ironwood Way, Solvang, Santa Barbara County, California, United States of America	-120.1472292	34.5877288	-120.1467876	34.5883992			
Nykobing		way	16256007	highway	residential	-120.1480136	34.5937782	22	0.2	Nykobing	Solvang	Santa Barbara County	California	United States of America	us	Nykobing, Solvang, Santa Barbara County, California, United States of America	-120.1482800	34.5932310	-120.1475070	34.5944660			
Val Verde		way	16259344	highway	residential	-120.1508074	34.5900081	22	0.2	Val Verde	Solvang	Santa Barbara County	California	United States of America	us	Val Verde, Solvang, Santa Barbara County, California, United States of America	-120.1519780	34.5899139	-120.1495391	34.5906390			
Fjord Drive		way	16259356	highway	residential	-120.1476982	34.5879381	22	0.2	Fjord Drive	Solvang	Santa Barbara County	California	United States of America	us	Fjord Drive, Solvang, Santa Barbara County, California, United States of America	-120.1521920	34.5861921	-120.1430015	34.5901500			
Juniper Avenue		way	16261188	highway	residential	-120.1436783	34.5879344	22	0.2	Juniper Avenue	Solvang	Santa Barbara County	California	United States of America	us	Juniper Avenue, Solvang, Santa Barbara County, California, United States of America	-120.1452851	34.5874773	-120.1419627	34.5886870			
Manzanita Drive		way	16249657	highway	residential	-120.1449756	34.5890435	22	0.2	Manzanita Drive	Solvang	Santa Barbara County	California	United States of America	us	Manzanita Drive, Solvang, Santa Barbara County, California, United States of America	-120.1463678	34.5873565	-120.1428821	34.5894280			
Elverhoy Court		way	16250570	highway	residential	-120.1393271	34.5913135	22	0.2	Elverhoy Court	Solvang	Santa Barbara County	California	United States of America	us	Elverhoy Court, Solvang, Santa Barbara County, California, United States of America	-120.1400290	34.5910810	-120.1386251	34.5915460			
3rd Street		way	16253300	highway	residential	-120.1456705	34.5908898	22	0.2	3rd Street	Solvang	Santa Barbara County	California	United States of America	us	3rd Street, Solvang, Santa Barbara County, California, United States of America	-120.1478950	34.5894239	-120.1431600	34.5934700			
Alta Vista		way	16253352	highway	residential	-120.1511102	34.5917717	22	0.2	Alta Vista	Solvang	Santa Barbara County	California	United States of America	us	Alta Vista, Solvang, Santa Barbara County, California, United States of America	-120.1517981	34.5905019	-120.1501830	34.5932379			
Birch Drive		way	16253356	highway	residential	-120.1427815	34.5915205	22	0.2	Birch Drive	Solvang	Santa Barbara County	California	United States of America	us	Birch Drive, Solvang, Santa Barbara County, California, United States of America	-120.1439680	34.5911260	-120.1415950	34.5919150			
Aarhus Drive		way	16254428	highway	residential	-120.1475761	34.5931665	22	0.2	Aarhus Drive	Solvang	Santa Barbara County	California	United States of America	us	Aarhus Drive, Solvang, Santa Barbara County, California, United States of America	-120.1494500	34.5916880	-120.1452141	34.5940220			
Freya Drive		way	16254525	highway	residential	-120.1385047	34.5903690	22	0.2	Freya Drive	Solvang	Santa Barbara County	California	United States of America	us	Freya Drive, Solvang, Santa Barbara County, California, United States of America	-120.1401240	34.5888789	-120.1375500	34.5904820			
Vester Sted		way	16255022	highway	residential	-120.1498287	34.5934705	22	0.2	Vester Sted	Solvang	Santa Barbara County	California	United States of America	us	Vester Sted, Solvang, Santa Barbara County, California, United States of America	-120.1498873	34.5916880	-120.1480171	34.5938000			
Midten Hof		way	16255147	highway	residential	-120.1488554	34.5927864	22	0.2	Midten Hof	Solvang	Santa Barbara County	California	United States of America	us	Midten Hof, Solvang, Santa Barbara County, California, United States of America	-120.1498131	34.5925427	-120.1487031	34.5937379			
Willow Drive		way	16255348	highway	residential	-120.1442465	34.5905966	22	0.2	Willow Drive	Solvang	Santa Barbara County	California	United States of America	us	Willow Drive, Solvang, Santa Barbara County, California, United States of America	-120.1462301	34.5896160	-120.1420440	34.5905980			
Oster Sted		way	16257358	highway	residential	-120.1463771	34.5931941	22	0.2	Oster Sted	Solvang	Santa Barbara County	California	United States of America	us	Oster Sted, Solvang, Santa Barbara County, California, United States of America	-120.1469580	34.5923729	-120.1463161	34.5937430			
Glen Way		way	16257705	highway	residential	-120.1429947	34.5873825	22	0.2	Glen Way	Solvang	Santa Barbara County	California	United States of America	us	Glen Way, Solvang, Santa Barbara County, California, United States of America	-120.1434100	34.5862970	-120.1424621	34.5884085			
Vester Hof		way	16258222	highway	residential	-120.1502568	34.5930574	22	0.2	Vester Hof	Solvang	Santa Barbara County	California	United States of America	us	Vester Hof, Solvang, Santa Barbara County, California, United States of America	-120.1506269	34.5930394	-120.1498873	34.5930912			
Sandalwood Way		way	16259347	highway	residential	-120.1478868	34.5883625	22	0.2	Sandalwood Way	Solvang	Santa Barbara County	California	United States of America	us	Sandalwood Way, Solvang, Santa Barbara County, California, United States of America	-120.1480540	34.5880970	-120.1477196	34.5886281			
1st Court		way	16256742	highway	residential	-120.1439577	34.5871962	22	0.2	1st Court	Solvang	Santa Barbara County	California	United States of America	us	1st Court, Solvang, Santa Barbara County, California, United States of America	-120.1442390	34.5871115	-120.1436764	34.5872809			
Sierra Vista		way	16260832	highway	residential	-120.1498576	34.5904548	22	0.2	Sierra Vista	Solvang	Santa Barbara County	California	United States of America	us	Sierra Vista, Solvang, Santa Barbara County, California, United States of America	-120.1523230	34.5889041	-120.1489771	34.5906420			
Rio Vista		way	16260899	highway	residential	-120.1513339	34.5911226	22	0.2	Rio Vista	Solvang	Santa Barbara County	California	United States of America	us	Rio Vista, Solvang, Santa Barbara County, California, United States of America	-120.1522291	34.5910590	-120.1504280	34.5912339			
Svenborg Road		way	16261031	highway	residential	-120.1368938	34.5923377	22	0.2	Svenborg Road	Solvang	Santa Barbara County	California	United States of America	us	Svenborg Road, Solvang, Santa Barbara County, California, United States of America	-120.1386251	34.5907329	-120.1354011	34.5923390			
Via Reposa		way	16262601	highway	residential	-120.1525890	34.5928484	22	0.2	Via Reposa	Solvang	Santa Barbara County	California	United States of America	us	Via Reposa, Solvang, Santa Barbara County, California, United States of America	-120.1537072	34.5925016	-120.1515024	34.5934356			
Seaside Drive		way	16255093	highway	residential	-120.4255917	34.9692104	22	0.2	Seaside Drive	Santa Maria		California	United States of America	us	Seaside Drive, Santa Maria, California, United States of America	-120.4262660	34.9692009	-120.4249150	34.9692169			
Carla Court		way	16256090	highway	residential	-120.4238140	34.9626088	22	0.2	Carla Court	Santa Maria		California	United States of America	us	Carla Court, Santa Maria, California, United States of America	-120.4240000	34.9626060	-120.4236250	34.9626260			
Carmel Lane		way	16257357	highway	residential	-120.4257847	34.9686446	22	0.2	Carmel Lane	Santa Maria		California	United States of America	us	Carmel Lane, Santa Maria, California, United States of America	-120.4257875	34.9680762	-120.4257770	34.9692130			
